[{"id": "dp2", "type": "ticketMachine", "name": "Grand Hotel International", "address": "Koulova 1501/15, Dejvice, Praha 6", "openingHours": [{"from": 0, "to": 6, "hours": "5:00-24:00"}], "lat": 50.1093445, "lon": 14.3935671, "services": 196608, "payMethods": 1}, {"id": "dp3", "type": "ticketMachine", "name": "Pas\u00e1\u017e Sofie", "address": "Sofijsk\u00e9 n\u00e1m\u011bst\u00ed 3400, Mod\u0159any, Praha 4", "openingHours": [{"from": 0, "to": 6, "hours": "8:00-20:00"}], "lat": 50.00562, "lon": 14.4182835, "services": 196608, "payMethods": 1}, {"id": "dp6", "type": "ticketMachine", "name": "Hotel Uno", "address": "\u0160t\u011bchovick\u00e1, Stra\u0161nice, Praha 10", "openingHours": [{"from": 0, "to": 6, "hours": "8:00-22:00"}], "lat": 50.0717659, "lon": 14.4999485, "services": 196608, "payMethods": 1}, {"id": "dp7", "type": "ticketMachine", "name": "Psychiatrick\u00e1 nemocnice Bohnice", "address": "\u00dastavn\u00ed, Bohnice, Praha 8", "openingHours": [{"from": 0, "to": 6, "hours": "0:00-24:00"}], "lat": 50.1336327, "lon": 14.4240017, "services": 196608, "payMethods": 1}, {"id": "dp9", "type": "ticketMachine", "name": "Oko\u0159sk\u00e1", "address": "K L\u00e1dv\u00ed 344/4, \u010cimice, Praha 8", "openingHours": [{"from": 0, "to": 6, "hours": "0:00-24:00"}], "lat": 50.13585, "lon": 14.4311657, "services": 196608, "payMethods": 1}, {"id": "dp11", "type": "ticketMachine", "name": "Mn\u00ed\u0161ek pod Brdy", "address": "N\u00e1m\u011bst\u00ed F.X.Svobody, Mn\u00ed\u0161ek pod Brdy", "openingHours": [{"from": 0, "to": 6, "hours": "0:00-24:00"}], "lat": 49.86647, "lon": 14.2612429, "services": 196608, "payMethods": 1}, {"id": "dp15", "type": "ticketMachine", "name": "Tehovi\u010dky", "address": "M\u00edrov\u00e1, Kolovraty, Praha 10", "openingHours": [{"from": 0, "to": 6, "hours": "0:00-24:00"}], "lat": 50.0123749, "lon": 14.6241436, "services": 196608, "payMethods": 1}, {"id": "dp22", "type": "ticketMachine", "name": "Satalice", "address": "K Radonic\u016fm, Satalice, Praha 9", "openingHours": [{"from": 0, "to": 6, "hours": "0:00-24:00"}], "lat": 50.12568, "lon": 14.5720673, "services": 196608, "payMethods": 1}, {"id": "dp23", "type": "ticketMachine", "name": "Hotel Kv\u011btnice", "address": "Na Kv\u011btnici, Nusle (recepce hotelu), Praha 4", "openingHours": [{"from": 0, "to": 6, "hours": "0:00-24:00"}], "lat": 50.0601921, "lon": 14.4392977, "services": 196608, "payMethods": 1}, {"id": "dp25", "type": "ticketMachine", "name": "Zentiva", "address": "U Kabelovny, Doln\u00ed M\u011bcholupy (objekt Zentivy), Praha 10", "openingHours": [{"from": 0, "to": 6, "hours": "0:00-24:00"}], "lat": 50.0609779, "lon": 14.5453682, "services": 196608, "payMethods": 1}, {"id": "dp27", "type": "ticketMachine", "name": "U St\u0159ediska", "address": "Dolnom\u011bcholupsk\u00e1 168/37, Doln\u00ed M\u011bcholupy, Praha 10", "openingHours": [{"from": 0, "to": 6, "hours": "0:00-24:00"}], "lat": 50.0585938, "lon": 14.5573187, "services": 196608, "payMethods": 1}, {"id": "dp28", "type": "ticketMachine", "name": "Doln\u00ed B\u0159e\u017eany, n\u00e1m\u011bst\u00ed", "address": "Pra\u017esk\u00e1, Doln\u00ed B\u0159e\u017eany, Doln\u00ed B\u0159e\u017eany - Praha z\u00e1pad", "openingHours": [{"from": 0, "to": 6, "hours": "0:00-24:00"}], "lat": 49.96364, "lon": 14.4588223, "services": 196608, "payMethods": 1}, {"id": "dp29", "type": "ticketMachine", "name": "Koh-i-noor", "address": "Vr\u0161ovick\u00e1 51, Vr\u0161ovice, Praha 10", "openingHours": [{"from": 0, "to": 6, "hours": "0:00-24:00"}], "lat": 50.06754, "lon": 14.4606218, "services": 196608, "payMethods": 1}, {"id": "dp30", "type": "ticketMachine", "name": "U Pam\u00e1tn\u00edku", "address": "Husitsk\u00e1, \u017di\u017ekov, Praha 3", "openingHours": [{"from": 0, "to": 6, "hours": "0:00-24:00"}], "lat": 50.0868149, "lon": 14.4455976, "services": 196608, "payMethods": 1}, {"id": "dp40", "type": "ticketMachine", "name": "\u010cestlice, Albert hypermarket", "address": "Obchodn\u00ed, \u010cestlice - Praha v\u00fdchod", "openingHours": [{"from": 0, "to": 6, "hours": "0:00-24:00"}], "lat": 50.00455, "lon": 14.57492, "services": 196608, "payMethods": 1}, {"id": "dp42", "type": "ticketMachine", "name": "Lipence", "address": "K Obci 47, Lipence (m\u011bstsk\u00fd \u00fa\u0159ad), Praha 5", "openingHours": [{"from": 0, "to": 6, "hours": "0:00-24:00"}], "lat": 49.959877, "lon": 14.35429, "services": 196608, "payMethods": 1}, {"id": "dp50", "type": "ticketMachine", "name": "Obchodn\u00ed centrum Zli\u010d\u00edn", "address": "Skandin\u00e1vsk\u00e1 141, Zli\u010d\u00edn, Praha 5", "openingHours": [{"from": 0, "to": 6, "hours": "0:00-24:00"}], "lat": 50.05032, "lon": 14.2977839, "services": 196608, "payMethods": 1}, {"id": "dp51", "type": "ticketMachine", "name": "S\u00eddli\u0161t\u011b \u0158epy", "address": "Makovsk\u00e9ho, \u0158epy, Praha 6", "openingHours": [{"from": 0, "to": 6, "hours": "0:00-24:00"}], "lat": 50.06507, "lon": 14.2985029, "services": 196608, "payMethods": 1}, {"id": "dp54", "type": "ticketMachine", "name": "Ruzyn\u011b vojensk\u00e1 ubytovna", "address": "U Prioru 938/6, Ruzyn\u011b, Praha 6", "openingHours": [{"from": 0, "to": 6, "hours": "8:00-19:00"}], "lat": 50.08784, "lon": 14.3156271, "services": 196608, "payMethods": 1}, {"id": "dp55", "type": "ticketMachine", "name": "\u010e\u00e1blice", "address": "\u010e\u00e1blick\u00e1 339/14, \u010e\u00e1blice, Praha 8", "openingHours": [{"from": 0, "to": 6, "hours": "0:00-24:00"}], "lat": 50.14489, "lon": 14.4852457, "services": 196608, "payMethods": 1}, {"id": "dp58", "type": "ticketMachine", "name": "Lys\u00e1 nad Labem \u010cD", "address": "n\u00e1dra\u017e\u00ed, Lys\u00e1 nad Labem - Praha v\u00fdchod", "openingHours": [{"from": 0, "to": 6, "hours": "0:00-24:00"}], "lat": 50.19586, "lon": 14.8429337, "services": 196608, "payMethods": 1}, {"id": "dp59", "type": "ticketMachine", "name": "\u00dajezd nad Lesy", "address": "Starokol\u00ednsk\u00e1, \u00dajezd nad Lesy, Praha 9", "openingHours": [{"from": 0, "to": 6, "hours": "0:00-24:00"}], "lat": 50.07639, "lon": 14.6589718, "services": 196608, "payMethods": 1}, {"id": "dp66", "type": "ticketMachine", "name": "N\u00e1dra\u017e\u00ed Radot\u00edn", "address": "Vr\u00e1\u017esk\u00e1, Radot\u00edn, Praha 5", "openingHours": [{"from": 0, "to": 6, "hours": "0:00-24:00"}], "lat": 49.9842339, "lon": 14.3625975, "services": 196608, "payMethods": 1}, {"id": "dp67", "type": "ticketMachine", "name": "Vr\u0161ovice \u010cD", "address": "Vr\u0161ovice (n\u00e1dra\u017e\u00ed), Praha 10", "openingHours": [{"from": 0, "to": 6, "hours": "0:00-24:00"}], "lat": 50.0648537, "lon": 14.4477749, "services": 196608, "payMethods": 1}, {"id": "dp71", "type": "ticketMachine", "name": "Centrum Zahradn\u00ed M\u011bsto", "address": "Topolov\u00e1, Zahradn\u00ed M\u011bsto, Praha 10", "openingHours": [{"from": 0, "to": 6, "hours": "0:00-24:00"}], "lat": 50.0568237, "lon": 14.50714, "services": 196608, "payMethods": 1}, {"id": "dp72", "type": "ticketMachine", "name": "M\u011bstsk\u00fd \u00fa\u0159ad Neratovice", "address": "Kojetick\u00e1 1028, Neratovice, Neratovice", "openingHours": [{"from": 0, "to": 6, "hours": "0:00-24:00"}], "lat": 50.2555923, "lon": 14.5204191, "services": 196608, "payMethods": 1}, {"id": "dp76", "type": "ticketMachine", "name": "Rudn\u00e1, U kina", "address": "Masarykova, Rudn\u00e1, Rudn\u00e1 - Praha z\u00e1pad", "openingHours": [{"from": 0, "to": 6, "hours": "0:00-24:00"}], "lat": 50.0340157, "lon": 14.2321043, "services": 196608, "payMethods": 1}, {"id": "dp84", "type": "ticketMachine", "name": "C\u00edlkova", "address": "Zdislavick\u00e1 583, Mod\u0159any (Jasn\u00e1), Praha 4", "openingHours": [{"from": 0, "to": 6, "hours": "0:00-24:00"}], "lat": 50.01695, "lon": 14.4432287, "services": 196608, "payMethods": 1}, {"id": "dp86", "type": "ticketMachine", "name": "Milovice \u010cD", "address": "N\u00e1dra\u017en\u00ed, n\u00e1dra\u017e\u00ed, Milovice - Praha v\u00fdchod", "openingHours": [{"from": 0, "to": 6, "hours": "0:00-24:00"}], "lat": 50.2291527, "lon": 14.8819389, "services": 196608, "payMethods": 1}, {"id": "dp88", "type": "ticketMachine", "name": "Smr\u017eovsk\u00e1", "address": "Slav\u011bt\u00ednsk\u00e1, Kl\u00e1novice, Praha 9", "openingHours": [{"from": 0, "to": 6, "hours": "0:00-24:00"}], "lat": 50.0949135, "lon": 14.6687794, "services": 196608, "payMethods": 1}, {"id": "dp90", "type": "ticketMachine", "name": "S\u00eddli\u0161t\u011b Novodvorsk\u00e1", "address": "Novodvorsk\u00e1 126, Lhotka, Praha 4", "openingHours": [{"from": 0, "to": 6, "hours": "0:00-24:00"}], "lat": 50.02529, "lon": 14.43446, "services": 196608, "payMethods": 1}, {"id": "dp91", "type": "ticketMachine", "name": "\u0160t\u011bpni\u010dn\u00e1", "address": "St\u0159elni\u010dn\u00e1 1347/47, \u010e\u00e1blice (prodejna), Praha 8", "openingHours": [{"from": 0, "to": 6, "hours": "0:00-24:00"}], "lat": 50.12866, "lon": 14.476222, "services": 196608, "payMethods": 1}, {"id": "dp93", "type": "ticketMachine", "name": "Vino\u0159sk\u00fd h\u0159bitov", "address": "Mladoboleslavsk\u00e1 162, Vino\u0159, Praha 9", "openingHours": [{"from": 0, "to": 6, "hours": "0:00-24:00"}], "lat": 50.1441345, "lon": 14.5794411, "services": 196608, "payMethods": 1}, {"id": "dp94", "type": "ticketMachine", "name": "\u010cern\u00ednova", "address": "Kon\u011bvova 738/55, \u017di\u017ekov, Praha 3", "openingHours": [{"from": 0, "to": 6, "hours": "0:00-24:00"}], "lat": 50.08884, "lon": 14.4605341, "services": 196608, "payMethods": 1}, {"id": "dp95", "type": "ticketMachine", "name": "\u0158\u00ed\u010dany, n\u00e1m\u011bst\u00ed", "address": "Masarykovo n\u00e1m\u011bst\u00ed, \u0158\u00ed\u010dany - Praha v\u00fdchod", "openingHours": [{"from": 0, "to": 6, "hours": "0:00-24:00"}], "lat": 49.99158, "lon": 14.6557274, "services": 196608, "payMethods": 1}, {"id": "dp98", "type": "ticketMachine", "name": "\u010cernokosteleck\u00e1", "address": "\u010cernokosteleck\u00e1, Stra\u0161nice, Praha 10", "openingHours": [{"from": 0, "to": 6, "hours": "5:00-24:00"}], "lat": 50.07795, "lon": 14.5092278, "services": 196608, "payMethods": 1}, {"id": "dp99", "type": "ticketMachine", "name": "Kub\u00e1nsk\u00e9 n\u00e1m\u011bst\u00ed", "address": "Kub\u00e1nsk\u00e9 n\u00e1m\u011bst\u00ed 92, Vr\u0161ovice, Praha 10", "openingHours": [{"from": 0, "to": 6, "hours": "0:00-24:00"}], "lat": 50.0705757, "lon": 14.4769821, "services": 196608, "payMethods": 1}, {"id": "dp100", "type": "ticketMachine", "name": "Bakovsk\u00e1", "address": "Bakovsk\u00e1, Kbely, Praha 9", "openingHours": [{"from": 0, "to": 6, "hours": "0:00-24:00"}], "lat": 50.1348076, "lon": 14.5491018, "services": 196608, "payMethods": 1}, {"id": "dp101", "type": "ticketMachine", "name": "Uh\u0159\u00edn\u011bves", "address": "Nov\u00e9 n\u00e1m\u011bst\u00ed 1257/8, Uh\u0159\u00edn\u011bves, Praha 22", "openingHours": [{"from": 0, "to": 6, "hours": "0:00-24:00"}], "lat": 50.0314522, "lon": 14.5998812, "services": 196608, "payMethods": 1}, {"id": "dp102", "type": "ticketMachine", "name": "Kbely", "address": "Mladoboleslavsk\u00e1 565, Kbely, Praha 9", "openingHours": [{"from": 0, "to": 6, "hours": "0:00-24:00"}], "lat": 50.1310158, "lon": 14.5518045, "services": 196608, "payMethods": 1}, {"id": "dp104", "type": "ticketMachine", "name": "Kostelec nad \u010cern\u00fdmi lesy, n\u00e1m.", "address": "N\u00e1m\u011bst\u00ed Smi\u0159ick\u00fdch, Kostelec nad \u010cern\u00fdmi lesy", "openingHours": [{"from": 0, "to": 6, "hours": "0:00-24:00"}], "lat": 49.994194, "lon": 14.8602648, "services": 196608, "payMethods": 1}, {"id": "dp110", "type": "ticketMachine", "name": "M\u011bln\u00edk, autobusov\u00e9 stanovi\u0161t\u011b", "address": "Autobusov\u00e9 n\u00e1dra\u017e\u00ed, M\u011bln\u00edk", "openingHours": [{"from": 0, "to": 6, "hours": "0:00-24:00"}], "lat": 50.0756454, "lon": 14.5154972, "services": 196608, "payMethods": 1}, {"id": "dp116", "type": "ticketMachine", "name": "Roztoky \u010cD", "address": "n\u00e1dra\u017e\u00ed, Roztoky u Prahy", "openingHours": [{"from": 0, "to": 6, "hours": "0:00-24:00"}], "lat": 50.1596565, "lon": 14.3980474, "services": 196608, "payMethods": 1}, {"id": "dp118", "type": "ticketMachine", "name": "Hostivice \u010cD", "address": "n\u00e1dra\u017e\u00ed, Hostivice - Praha z\u00e1pad", "openingHours": [{"from": 0, "to": 6, "hours": "0:00-24:00"}], "lat": 50.08382, "lon": 14.2583094, "services": 196608, "payMethods": 1}, {"id": "dp119", "type": "ticketMachine", "name": "\u010cerven\u00fd Vrch", "address": "Evropsk\u00e1, Vokovice, Praha 6", "openingHours": [{"from": 0, "to": 6, "hours": "0:00-24:00"}], "lat": 50.09654, "lon": 14.35173, "services": 196608, "payMethods": 1}, {"id": "dp125", "type": "ticketMachine", "name": "Chodovsk\u00e1", "address": "U Plyn\u00e1rny, Michle, Praha 10", "openingHours": [{"from": 0, "to": 6, "hours": "0:00-24:00"}], "lat": 50.056942, "lon": 14.4686031, "services": 196608, "payMethods": 1}, {"id": "dp126", "type": "ticketMachine", "name": "Na Pades\u00e1t\u00e9m", "address": "Pr\u016fb\u011b\u017en\u00e1, Stra\u0161nice, Praha 10", "openingHours": [{"from": 0, "to": 6, "hours": "0:00-24:00"}], "lat": 50.06478, "lon": 14.5039434, "services": 196608, "payMethods": 1}, {"id": "dp127", "type": "ticketMachine", "name": "\u010cerno\u0161ice \u010cD", "address": "Radot\u00ednsk\u00e1, \u010cerno\u0161ice - Praha z\u00e1pad", "openingHours": [{"from": 0, "to": 6, "hours": "0:00-24:00"}], "lat": 49.959034, "lon": 14.3232441, "services": 196608, "payMethods": 1}, {"id": "dp128", "type": "ticketMachine", "name": "\u00davaly \u010cD", "address": "n\u00e1dra\u017e\u00ed, \u00davaly - Praha v\u00fdchod", "openingHours": [{"from": 0, "to": 6, "hours": "0:00-24:00"}], "lat": 50.07471, "lon": 14.7227507, "services": 196608, "payMethods": 1}, {"id": "dp138", "type": "ticketMachine", "name": "\u010cesk\u00fd Brod \u010cD", "address": "n\u00e1dra\u017e\u00ed, \u010cesk\u00fd Brod", "openingHours": [{"from": 0, "to": 6, "hours": "0:00-24:00"}], "lat": 50.0764275, "lon": 14.865757, "services": 196608, "payMethods": 1}, {"id": "dp139", "type": "ticketMachine", "name": "Hostivice", "address": "\u010ceskoslov.arm\u00e1dy 17, Hostivice - Praha z\u00e1pad", "openingHours": [{"from": 0, "to": 6, "hours": "0:00-24:00"}], "lat": 50.0812454, "lon": 14.2556868, "services": 196608, "payMethods": 1}, {"id": "dp159", "type": "ticketMachine", "name": "\u010cel\u00e1kovice \u010cD", "address": "n\u00e1dra\u017e\u00ed, \u010cel\u00e1kovice", "openingHours": [{"from": 0, "to": 6, "hours": "0:00-24:00"}], "lat": 50.15798, "lon": 14.753953, "services": 196608, "payMethods": 5}, {"id": "dp166", "type": "ticketMachine", "name": "Str\u00e1n\u010dice \u010cD II", "address": "n\u00e1dra\u017e\u00ed, Str\u00e1n\u010dice", "openingHours": [{"from": 0, "to": 6, "hours": "0:00-24:00"}], "lat": 49.9495468, "lon": 14.6776781, "services": 196608, "payMethods": 1}, {"id": "dp189", "type": "ticketMachine", "name": "Hotel Fortuna West", "address": "Mrkvi\u010dkova 2, \u0158epy, Praha 6", "openingHours": [{"from": 0, "to": 6, "hours": "0:00-24:00"}], "lat": 50.06563, "lon": 14.3188286, "services": 196608, "payMethods": 1}, {"id": "dp196", "type": "ticketMachine", "name": "Na Vart\u011b", "address": "Mil\u00e1nsk\u00e1 311, Horn\u00ed M\u011bcholupy, Praha 10", "openingHours": [{"from": 0, "to": 6, "hours": "0:00-24:00"}], "lat": 50.04557, "lon": 14.5578432, "services": 196608, "payMethods": 1}, {"id": "dp198", "type": "ticketMachine", "name": "Kladno autobusov\u00e9 n\u00e1dra\u017e\u00ed", "address": "Dukelsk\u00fdch hrdin\u016f, Kladno", "openingHours": [{"from": 0, "to": 6, "hours": "0:00-24:00"}], "lat": 50.1464462, "lon": 14.1056509, "services": 196608, "payMethods": 1}, {"id": "dp261", "type": "ticketMachine", "name": "Pe\u010dky \u010cD", "address": "n\u00e1dra\u017e\u00ed, Pe\u010dky", "openingHours": [{"from": 0, "to": 6, "hours": "0:00-24:00"}], "lat": 50.0898933, "lon": 15.0275917, "services": 196608, "payMethods": 1}, {"id": "dp262", "type": "ticketMachine", "name": "Lib\u010dice \u010cD", "address": "n\u00e1dra\u017e\u00ed, Lib\u010dice", "openingHours": [{"from": 0, "to": 6, "hours": "0:00-24:00"}], "lat": 50.19991, "lon": 14.3638449, "services": 196608, "payMethods": 1}, {"id": "dp263", "type": "ticketMachine", "name": "Kralupy nad Vltavou \u010cD", "address": "n\u00e1dra\u017e\u00ed, Kralupy nad Vltavou", "openingHours": [{"from": 0, "to": 6, "hours": "0:00-24:00"}], "lat": 50.23892, "lon": 14.3135624, "services": 196608, "payMethods": 1}, {"id": "dp264", "type": "ticketMachine", "name": "Dob\u0159ichovice \u010cD", "address": "n\u00e1dra\u017e\u00ed, Dob\u0159ichovice", "openingHours": [{"from": 0, "to": 6, "hours": "0:00-24:00"}], "lat": 49.9272957, "lon": 14.2879019, "services": 196608, "payMethods": 1}, {"id": "dp265", "type": "ticketMachine", "name": "\u0158evnice \u010cD", "address": "n\u00e1dra\u017e\u00ed, \u0158evnice", "openingHours": [{"from": 0, "to": 6, "hours": "0:00-24:00"}], "lat": 49.91627, "lon": 14.2388554, "services": 196608, "payMethods": 1}, {"id": "dp266", "type": "ticketMachine", "name": "Zadn\u00ed T\u0159eb\u00e1\u0148 \u010cD", "address": "n\u00e1dra\u017e\u00ed, Zadn\u00ed T\u0159eb\u00e1\u0148", "openingHours": [{"from": 0, "to": 6, "hours": "0:00-24:00"}], "lat": 49.9185677, "lon": 14.2031631, "services": 196608, "payMethods": 1}, {"id": "dp267", "type": "ticketMachine", "name": "Karl\u0161tejn \u010cD", "address": "n\u00e1dra\u017e\u00ed, Karl\u0161tejn", "openingHours": [{"from": 0, "to": 6, "hours": "0:00-24:00"}], "lat": 49.93217, "lon": 14.1758766, "services": 196608, "payMethods": 1}, {"id": "dp268", "type": "ticketMachine", "name": "Beroun \u010cD", "address": "n\u00e1dra\u017e\u00ed, Beroun", "openingHours": [{"from": 0, "to": 6, "hours": "0:00-24:00"}], "lat": 49.9576836, "lon": 14.076148, "services": 196608, "payMethods": 1}, {"id": "dp269", "type": "ticketMachine", "name": "Vran\u00e9 nad Vltavou \u010cD", "address": "n\u00e1dra\u017e\u00ed, Vran\u00e9 nad Vltavou", "openingHours": [{"from": 0, "to": 6, "hours": "0:00-24:00"}], "lat": 49.93872, "lon": 14.3812208, "services": 196608, "payMethods": 1}, {"id": "dp270", "type": "ticketMachine", "name": "\u0158\u00ed\u010dany \u010cD", "address": "n\u00e1dra\u017e\u00ed, \u0158\u00ed\u010dany", "openingHours": [{"from": 0, "to": 6, "hours": "0:00-24:00"}], "lat": 49.99745, "lon": 14.6638689, "services": 196608, "payMethods": 1}, {"id": "dp272", "type": "ticketMachine", "name": "Mnichovice \u010cD", "address": "n\u00e1dra\u017e\u00ed, Mnichovice", "openingHours": [{"from": 0, "to": 6, "hours": "0:00-24:00"}], "lat": 49.93257, "lon": 14.7073822, "services": 196608, "payMethods": 1}, {"id": "dp273", "type": "ticketMachine", "name": "Senohraby \u010cD", "address": "n\u00e1dra\u017e\u00ed, Senohraby", "openingHours": [{"from": 0, "to": 6, "hours": "0:00-24:00"}], "lat": 49.8971062, "lon": 14.7278147, "services": 196608, "payMethods": 1}, {"id": "dp275", "type": "ticketMachine", "name": "Miro\u0161ovice \u010cD", "address": "n\u00e1dra\u017e\u00ed, Miro\u0161ovice", "openingHours": [{"from": 0, "to": 6, "hours": "0:00-24:00"}], "lat": 49.9104729, "lon": 14.7198868, "services": 196608, "payMethods": 1}, {"id": "dp325", "type": "ticketMachine", "name": "Hotel Don Giovani", "address": "\u017delivsk\u00e9ho, \u017di\u017ekov, Praha 3", "openingHours": [{"from": 0, "to": 6, "hours": "5:00-24:00"}], "lat": 50.04681, "lon": 14.3079872, "services": 196608, "payMethods": 1}, {"id": "dp326", "type": "ticketMachine", "name": "Ratibo\u0159ick\u00e1", "address": "J\u00edvansk\u00e1, Horn\u00ed Po\u010dernice, Praha 9", "openingHours": [{"from": 0, "to": 6, "hours": "0:00-24:00"}], "lat": 50.1115761, "lon": 14.6144981, "services": 196608, "payMethods": 1}, {"id": "dp334", "type": "ticketMachine", "name": "M\u011bln\u00edk, U H\u0159i\u0161t\u011b", "address": "Pra\u017esk\u00e1, M\u011bln\u00edk", "openingHours": [{"from": 0, "to": 6, "hours": "0:00-24:00"}], "lat": 50.34437, "lon": 14.4864416, "services": 196608, "payMethods": 1}, {"id": "dp368", "type": "ticketMachine", "name": "Po\u0159\u00ed\u010dany \u010cD", "address": "n\u00e1dra\u017e\u00ed, Po\u0159\u00ed\u010dany", "openingHours": [{"from": 0, "to": 6, "hours": "0:00-24:00"}], "lat": 50.1107979, "lon": 14.9221945, "services": 196608, "payMethods": 1}, {"id": "dp379", "type": "ticketMachine", "name": "\u010cerno\u0161ice - Mokropsy \u010cD", "address": "N\u00e1dra\u017en\u00ed, n\u00e1dra\u017e\u00ed, \u010cerno\u0161ice", "openingHours": [{"from": 0, "to": 6, "hours": "0:00-24:00"}], "lat": 49.94601, "lon": 14.3308706, "services": 196608, "payMethods": 1}, {"id": "dp399", "type": "ticketMachine", "name": "\u0160kola Radlice", "address": "Radlick\u00e1 140, Radlice, Praha 5", "openingHours": [{"from": 0, "to": 6, "hours": "0:00-24:00"}], "lat": 50.0594368, "lon": 14.39317, "services": 196608, "payMethods": 1}, {"id": "dp400", "type": "ticketMachine", "name": "Laurov\u00e1", "address": "Radlick\u00e1 65, Radlice, Praha 5", "openingHours": [{"from": 0, "to": 6, "hours": "0:00-24:00"}], "lat": 50.0611038, "lon": 14.3978405, "services": 196608, "payMethods": 1}, {"id": "dp403", "type": "ticketMachine", "name": "Radlick\u00e1", "address": "Radlick\u00e1, Radlice (kone\u010dn\u00e1 tramvaj\u00ed), Praha 5", "openingHours": [{"from": 0, "to": 6, "hours": "0:00-24:00"}], "lat": 50.05887, "lon": 14.3893881, "services": 196608, "payMethods": 1}, {"id": "dp406", "type": "ticketMachine", "name": "S\u00eddli\u0161t\u011b Radot\u00edn", "address": "S\u00eddli\u0161t\u011b 19, S\u00eddli\u0161t\u011b Radot\u00edn, Praha 5", "openingHours": [{"from": 0, "to": 6, "hours": "0:00-24:00"}], "lat": 49.9803238, "lon": 14.3534908, "services": 196608, "payMethods": 1}, {"id": "dp437", "type": "ticketMachine", "name": "Obchodn\u00ed centrum \u0160t\u011brboholy", "address": "N\u00e1kupn\u00ed, \u0160t\u011brboholy, Praha 10", "openingHours": [{"from": 0, "to": 6, "hours": "0:00-24:00"}], "lat": 50.0721474, "lon": 14.5425119, "services": 196608, "payMethods": 1}, {"id": "dp772", "type": "ticketMachine", "name": "Klobou\u010dnick\u00e1", "address": "Klobou\u010dnick\u00e1, Nusle, Praha 4", "openingHours": [{"from": 0, "to": 6, "hours": "0:00-24:00"}], "lat": 50.0435677, "lon": 14.4506416, "services": 196608, "payMethods": 1}, {"id": "dp885", "type": "ticketMachine", "name": "Komo\u0159any", "address": "Kysl\u00edkov\u00e1, Komo\u0159any, Praha 4", "openingHours": [{"from": 0, "to": 6, "hours": "0:00-24:00"}], "lat": 49.99148, "lon": 14.4109259, "services": 196608, "payMethods": 1}, {"id": "dp951", "type": "ticketMachine", "name": "S\u00eddli\u0161t\u011b Barrandov", "address": "Werichova, Barrandov (kone\u010dn\u00e1), Praha 5", "openingHours": [{"from": 0, "to": 6, "hours": "0:00-24:00"}], "lat": 50.0315, "lon": 14.3682413, "services": 196608, "payMethods": 1}, {"id": "dp952", "type": "ticketMachine", "name": "Poliklinika Barrandov", "address": "Tr\u00e9glova, Barrandov (z centra), Praha 5", "openingHours": [{"from": 0, "to": 6, "hours": "0:00-24:00"}], "lat": 50.03386, "lon": 14.3741608, "services": 196608, "payMethods": 1}, {"id": "dp953", "type": "ticketMachine", "name": "Poliklinika Barrandov", "address": "Tr\u00e9glova, Barrandov (do centra), Praha 5", "openingHours": [{"from": 0, "to": 6, "hours": "0:00-24:00"}], "lat": 50.03386, "lon": 14.3741608, "services": 196608, "payMethods": 1}, {"id": "dp954", "type": "ticketMachine", "name": "Chaplinovo n\u00e1m\u011bst\u00ed", "address": "Chaplinovo n\u00e1m\u011bst\u00ed, Barrandov (z centra), Praha 5", "openingHours": [{"from": 0, "to": 6, "hours": "0:00-24:00"}], "lat": 50.0350838, "lon": 14.3777485, "services": 196608, "payMethods": 1}, {"id": "dp955", "type": "ticketMachine", "name": "Chaplinovo n\u00e1m\u011bst\u00ed", "address": "Chaplinovo n\u00e1m\u011bst\u00ed, Barrandov (do centra), Praha 5", "openingHours": [{"from": 0, "to": 6, "hours": "0:00-24:00"}], "lat": 50.034935, "lon": 14.37789, "services": 196608, "payMethods": 1}, {"id": "dp956", "type": "ticketMachine", "name": "K Barrandovu", "address": "K Barrandovu, Barrandov (z centra), Praha 5", "openingHours": [{"from": 0, "to": 6, "hours": "0:00-24:00"}], "lat": 50.03533, "lon": 14.3832445, "services": 196608, "payMethods": 1}, {"id": "dp957", "type": "ticketMachine", "name": "K Barrandovu", "address": "K Barrandovu, Barrandov (do centra), Praha 5", "openingHours": [{"from": 0, "to": 6, "hours": "0:00-24:00"}], "lat": 50.03533, "lon": 14.3832445, "services": 196608, "payMethods": 1}, {"id": "dp958", "type": "ticketMachine", "name": "Geologick\u00e1", "address": "K Barrandovu, Barrandov (z centra), Praha 5", "openingHours": [{"from": 0, "to": 6, "hours": "0:00-24:00"}], "lat": 50.0364456, "lon": 14.3886366, "services": 196608, "payMethods": 1}, {"id": "dp959", "type": "ticketMachine", "name": "Geologick\u00e1", "address": "K Barrandovu, Barrandov (do centra), Praha 5", "openingHours": [{"from": 0, "to": 6, "hours": "0:00-24:00"}], "lat": 50.0364456, "lon": 14.3886366, "services": 196608, "payMethods": 1}, {"id": "dp960", "type": "ticketMachine", "name": "Hlubo\u010depy", "address": "Hlubo\u010depsk\u00e1, Barrandov (z centra), Praha 5", "openingHours": [{"from": 0, "to": 6, "hours": "0:00-24:00"}], "lat": 50.0418472, "lon": 14.4042873, "services": 196608, "payMethods": 1}, {"id": "dp961", "type": "ticketMachine", "name": "Hlubo\u010depy", "address": "Hlubo\u010depsk\u00e1, Barrandov (do centra), Praha 5", "openingHours": [{"from": 0, "to": 6, "hours": "0:00-24:00"}], "lat": 50.0421257, "lon": 14.4046106, "services": 196608, "payMethods": 1}, {"id": "dp962", "type": "ticketMachine", "name": "\u0160t\u011bpa\u0159sk\u00e1", "address": "\u0160t\u011bpa\u0159sk\u00e1, Barrandov, Praha 5", "openingHours": [{"from": 0, "to": 6, "hours": "0:00-24:00"}], "lat": 50.0321, "lon": 14.37346, "services": 196608, "payMethods": 1}, {"id": "dp129", "type": "ticketMachine", "name": "Gercenova", "address": "Plukovn\u00edka Mr\u00e1ze, Hostiva\u0159, Praha 10", "openingHours": [{"from": 0, "to": 6, "hours": "0:00-24:00"}], "lat": 50.0503464, "lon": 14.5436935, "services": 196608, "payMethods": 5}, {"id": "dp150", "type": "ticketMachine", "name": "Orionka", "address": "Korunn\u00ed 110, Vinohrady, Praha 10", "openingHours": [{"from": 0, "to": 6, "hours": "0:00-24:00"}], "lat": 50.0754662, "lon": 14.4599743, "services": 196608, "payMethods": 5}, {"id": "dp449", "type": "ticketMachine", "name": "Kunratice", "address": "N\u00e1m. Prezidenta Masaryka 109, Kunratice, Praha 4", "openingHours": [{"from": 0, "to": 6, "hours": "0:00-24:00"}], "lat": 50.0133247, "lon": 14.4850292, "services": 196608, "payMethods": 5}, {"id": "dp471", "type": "ticketMachine", "name": "Libe\u0159 Libe\u0148 O\u00e1za", "address": "Libe\u0148 47, Libe\u0148 (camp O\u00e1za), Doln\u00ed B\u0159e\u017eany - Praha z\u00e1pad", "openingHours": [{"from": 0, "to": 6, "hours": "8:00-21:00"}], "lat": 49.9514046, "lon": 14.4750366, "services": 196608, "payMethods": 5}, {"id": "dp472", "type": "ticketMachine", "name": "Mosteck\u00e1", "address": "Mosteck\u00e1 53/4, Mal\u00e1 Strana, Praha 1", "openingHours": [{"from": 0, "to": 6, "hours": "8:00-19:00"}], "lat": 50.0873642, "lon": 14.4066811, "services": 196608, "payMethods": 5}, {"id": "dp641", "type": "ticketMachine", "name": "Fakulta TVS", "address": "Jos\u00e9 Mart\u00edho 31, Veleslav\u00edn (recepce), Praha 6", "openingHours": [{"from": 0, "to": 6, "hours": "8:00-19:00"}], "lat": 50.0984, "lon": 14.3644457, "services": 196608, "payMethods": 5}, {"id": "dp642", "type": "ticketMachine", "name": "Campink Drusus", "address": "K \u0158eporyj\u00edm 4, T\u0159ebonice, Praha 13", "openingHours": [{"from": 0, "to": 6, "hours": "0:00-24:00"}], "lat": 50.043808, "lon": 14.284586, "services": 196608, "payMethods": 5}, {"id": "dp644", "type": "ticketMachine", "name": "Vyso\u010dany \u010cD", "address": "Vyso\u010dany (n\u00e1dra\u017e\u00ed), Praha 9", "openingHours": [{"from": 0, "to": 6, "hours": "0:00-24:00"}], "lat": 50.1122437, "lon": 14.4975615, "services": 196608, "payMethods": 5}, {"id": "dp645", "type": "ticketMachine", "name": "Vozovna Stra\u0161nice", "address": "Starostra\u0161nick\u00e1, Stra\u0161nice, Praha 10", "openingHours": [{"from": 0, "to": 6, "hours": "0:00-24:00"}], "lat": 50.07586, "lon": 14.489398, "services": 196608, "payMethods": 5}, {"id": "dp651", "type": "ticketMachine", "name": "And\u011bl Kn\u00ed\u017eec\u00ed", "address": "Ostrovsk\u00e9ho, Sm\u00edchov, Praha 5", "openingHours": [{"from": 0, "to": 6, "hours": "0:00-24:00"}], "lat": 50.0689659, "lon": 14.4043036, "services": 196608, "payMethods": 5}, {"id": "dp652", "type": "ticketMachine", "name": "Milovice \u010cD", "address": "N\u00e1dra\u017en\u00ed, n\u00e1dra\u017e\u00ed, Milovice - Praha v\u00fdchod", "openingHours": [{"from": 0, "to": 6, "hours": "0:00-24:00"}], "lat": 50.22919, "lon": 14.8817148, "services": 196608, "payMethods": 5}, {"id": "dp653", "type": "ticketMachine", "name": "Zelen\u00e1", "address": "Jugosl\u00e1vsk\u00fdch partyz\u00e1n\u016f, Dejvice, Praha 6", "openingHours": [{"from": 0, "to": 6, "hours": "0:00-24:00"}], "lat": 50.10737, "lon": 14.3944712, "services": 196608, "payMethods": 5}, {"id": "dp654", "type": "ticketMachine", "name": "Radot\u00edn za n\u00e1dra\u017e\u00edm", "address": "n\u00e1dra\u017e\u00ed, Praha 5", "openingHours": [{"from": 0, "to": 6, "hours": "0:00-24:00"}], "lat": 49.9861069, "lon": 14.36369, "services": 196608, "payMethods": 5}, {"id": "dp661", "type": "ticketMachine", "name": "Mama Shelter Prague (Parkhotel)", "address": "Veletr\u017en\u00ed 20, Hole\u0161ovice (recepce hotelu), Praha 7", "openingHours": [{"from": 0, "to": 6, "hours": "0:00-24:00"}], "lat": 50.102272, "lon": 14.4316921, "services": 196608, "payMethods": 5}, {"id": "dp662", "type": "ticketMachine", "name": "Nemocnice Na Homolce", "address": "Roentgenova, Motol (recepce nemocnice), Praha 5", "openingHours": [{"from": 0, "to": 6, "hours": "0:00-24:00"}], "lat": 50.0755043, "lon": 14.3541489, "services": 196608, "payMethods": 5}, {"id": "dp663", "type": "ticketMachine", "name": "Koleje Volha", "address": "K Verner\u00e1ku 950, Kunratice, Praha 4", "openingHours": [{"from": 0, "to": 6, "hours": "8:00-22:00"}], "lat": 50.02076, "lon": 14.4905338, "services": 196608, "payMethods": 5}, {"id": "dp664", "type": "ticketMachine", "name": "Kudrnova", "address": "V \u00davalu, Motol (vr\u00e1tnice FNM), Praha 5", "openingHours": [{"from": 0, "to": 6, "hours": "0:00-24:00"}], "lat": 50.07234, "lon": 14.3436346, "services": 196608, "payMethods": 5}, {"id": "dp671", "type": "ticketMachine", "name": "Malostransk\u00e9 n\u00e1m.- Parlament \u010cR", "address": "Malostransk\u00e9 n\u00e1m\u011bst\u00ed, Mal\u00e1 Strana, Praha 1", "openingHours": [{"from": 0, "to": 4, "hours": "8:00-16:00"}], "lat": 50.08857, "lon": 14.404397, "services": 196608, "payMethods": 5}, {"id": "dp672", "type": "ticketMachine", "name": "Hotel Krystal", "address": "Jos\u00e9 Mart\u00edho 2/407, Veleslav\u00edn, Praha 6", "openingHours": [{"from": 0, "to": 6, "hours": "0:00-24:00"}], "lat": 50.0938339, "lon": 14.3413591, "services": 196608, "payMethods": 5}, {"id": "dp673", "type": "ticketMachine", "name": "A&O Prag Rhea", "address": "V \u00da\u017elabin\u011b 3068/19, Stra\u0161nice, Praha 10", "openingHours": [{"from": 0, "to": 6, "hours": "5:00-24:00"}], "lat": 50.07977, "lon": 14.4995461, "services": 196608, "payMethods": 5}, {"id": "dp674", "type": "ticketMachine", "name": "Hotel Golf", "address": "Plze\u0148sk\u00e1 103/215A, Motol, Praha 5", "openingHours": [{"from": 0, "to": 6, "hours": "0:00-24:00"}], "lat": 50.06752, "lon": 14.3446159, "services": 196608, "payMethods": 5}, {"id": "dp675", "type": "ticketMachine", "name": "\u0158\u00ed\u010dany \u010cD", "address": "n\u00e1dra\u017e\u00ed, \u0158\u00ed\u010dany u Prahy", "openingHours": [{"from": 0, "to": 6, "hours": "0:00-24:00"}], "lat": 49.99724, "lon": 14.6642723, "services": 196608, "payMethods": 5}, {"id": "dp676", "type": "ticketMachine", "name": "Hotel Step", "address": "Malletova 1141, Vyso\u010dany, Praha 9", "openingHours": [{"from": 0, "to": 6, "hours": "8:00-19:00"}], "lat": 50.1015358, "lon": 14.4844313, "services": 196608, "payMethods": 5}, {"id": "dp1003", "type": "ticketMachine", "name": "Libe\u0148 \u010cD", "address": "\u010ceskomoravsk\u00e1 24, Libe\u0148 n\u00e1dra\u017e\u00ed, Praha 9", "openingHours": [{"from": 0, "to": 6, "hours": "0:00-24:00"}], "lat": 50.10131, "lon": 14.5019093, "services": 196608, "payMethods": 5}, {"id": "dp1004", "type": "ticketMachine", "name": "I. P. Pavlova", "address": "B\u011blehradsk\u00e1 87, Vinohrady, Praha 2", "openingHours": [{"from": 0, "to": 6, "hours": "0:00-24:00"}], "lat": 50.075737, "lon": 14.4320078, "services": 196608, "payMethods": 5}, {"id": "dp1005", "type": "ticketMachine", "name": "B\u00edl\u00e1 Hora", "address": "Karlovarsk\u00e1, Ruzyn\u011b, Praha 6", "openingHours": [{"from": 0, "to": 6, "hours": "5:00-24:00"}], "lat": 50.075573, "lon": 14.3227253, "services": 196608, "payMethods": 5}, {"id": "dp1006", "type": "ticketMachine", "name": "N\u00e1dra\u017e\u00ed Podbaba", "address": "Jugosl\u00e1vsk\u00fdch partyz\u00e1n\u016f, Dejvice, Praha 6", "openingHours": [{"from": 0, "to": 6, "hours": "0:00-24:00"}], "lat": 50.111187, "lon": 14.3940125, "services": 196608, "payMethods": 5}, {"id": "dp1007", "type": "ticketMachine", "name": "Albertov", "address": "Na Slupi, Nov\u00e9 M\u011bsto, Praha 2", "openingHours": [{"from": 0, "to": 6, "hours": "0:00-24:00"}], "lat": 50.0671272, "lon": 14.4216156, "services": 196608, "payMethods": 5}, {"id": "dp1012", "type": "ticketMachine", "name": "S\u00eddli\u0161t\u011b Libu\u0161", "address": "Gener\u00e1la \u0160i\u0161ky, Libu\u0161, Praha 4", "openingHours": [{"from": 0, "to": 6, "hours": "0:00-24:00"}], "lat": 50.005928, "lon": 14.4541559, "services": 196608, "payMethods": 5}, {"id": "dp1013", "type": "ticketMachine", "name": "Libu\u0161", "address": "Novodvorsk\u00e1, Libu\u0161, Praha 4", "openingHours": [{"from": 0, "to": 6, "hours": "0:00-24:00"}], "lat": 50.0088921, "lon": 14.4557381, "services": 196608, "payMethods": 5}, {"id": "dp1021", "type": "ticketMachine", "name": "N\u00e1dra\u017e\u00ed Hostiva\u0159", "address": "Plukovn\u00edka Mr\u00e1ze, Hostiva\u0159, Praha 10", "openingHours": [{"from": 0, "to": 6, "hours": "0:00-24:00"}], "lat": 50.053894, "lon": 14.5368986, "services": 196608, "payMethods": 5}, {"id": "dp1033", "type": "ticketMachine", "name": "Poho\u0159elec", "address": "Keplerova, Hrad\u010dany, Praha 1", "openingHours": [{"from": 0, "to": 6, "hours": "0:00-24:00"}], "lat": 50.0876274, "lon": 14.3883123, "services": 196608, "payMethods": 5}, {"id": "dp1034", "type": "ticketMachine", "name": "Dru\u017en\u00e1", "address": "\u010ceskoslovensk\u00e9ho exilu, Mod\u0159any, Praha 4", "openingHours": [{"from": 0, "to": 6, "hours": "0:00-24:00"}], "lat": 50.01223, "lon": 14.4172583, "services": 196608, "payMethods": 5}, {"id": "dp1046", "type": "ticketMachine", "name": "S\u00eddli\u0161t\u011b Pet\u0159iny", "address": "Na Pet\u0159in\u00e1ch 91, Pet\u0159iny, Praha 6", "openingHours": [{"from": 0, "to": 6, "hours": "0:00-24:00"}], "lat": 50.0869026, "lon": 14.3404436, "services": 196608, "payMethods": 5}, {"id": "dp1048", "type": "ticketMachine", "name": "\u0158epy Sl\u00e1nsk\u00e1", "address": "Makovsk\u00e9ho, \u0158epy, Praha 6", "openingHours": [{"from": 0, "to": 6, "hours": "0:00-24:00"}], "lat": 50.06472, "lon": 14.30823, "services": 196608, "payMethods": 5}, {"id": "dp1049", "type": "ticketMachine", "name": "Malostransk\u00e9 n\u00e1m\u011bst\u00ed", "address": "Malostransk\u00e9 n\u00e1m\u011bst\u00ed, Mal\u00e1 Strana, Praha 1", "openingHours": [{"from": 0, "to": 6, "hours": "0:00-24:00"}], "lat": 50.0880775, "lon": 14.4042835, "services": 196608, "payMethods": 5}, {"id": "dp1056", "type": "ticketMachine", "name": "Lipansk\u00e1", "address": "Seifertova 46, \u017di\u017ekov, Praha 3", "openingHours": [{"from": 0, "to": 6, "hours": "0:00-24:00"}], "lat": 50.08408, "lon": 14.4526653, "services": 196608, "payMethods": 5}, {"id": "dp1057", "type": "ticketMachine", "name": "Spojovac\u00ed", "address": "Spojovac\u00ed, \u017di\u017ekov, Praha 3", "openingHours": [{"from": 0, "to": 6, "hours": "0:00-24:00"}], "lat": 50.091835, "lon": 14.4986124, "services": 196608, "payMethods": 5}, {"id": "dp1064", "type": "ticketMachine", "name": "N\u00e1dra\u017e\u00ed Bran\u00edk", "address": "Pikovick\u00e1, Bran\u00edk, Praha 4", "openingHours": [{"from": 0, "to": 6, "hours": "0:00-24:00"}], "lat": 50.0287781, "lon": 14.406518, "services": 196608, "payMethods": 5}, {"id": "dp1065", "type": "ticketMachine", "name": "Dvorce", "address": "Podolsk\u00e9 n\u00e1b\u0159e\u017e\u00ed, Podol\u00ed, Praha 4", "openingHours": [{"from": 0, "to": 6, "hours": "0:00-24:00"}], "lat": 50.04697, "lon": 14.4141026, "services": 196608, "payMethods": 5}, {"id": "dp1078", "type": "ticketMachine", "name": "Letensk\u00e9 n\u00e1m\u011bst\u00ed", "address": "Letensk\u00e9 n\u00e1m\u011bst\u00ed, Hole\u0161ovice, Praha 7", "openingHours": [{"from": 0, "to": 6, "hours": "0:00-24:00"}], "lat": 50.1000481, "lon": 14.4232674, "services": 196608, "payMethods": 5}, {"id": "dp1087", "type": "ticketMachine", "name": "Blatiny", "address": "Makovsk\u00e9ho, \u0158epy, Praha 6", "openingHours": [{"from": 0, "to": 6, "hours": "0:00-24:00"}], "lat": 50.0656128, "lon": 14.3035374, "services": 196608, "payMethods": 5}, {"id": "dp1089", "type": "ticketMachine", "name": "Masarykovo n\u00e1dra\u017e\u00ed", "address": "Havl\u00ed\u010dkova, Nov\u00e9 M\u011bsto, Praha 1", "openingHours": [{"from": 0, "to": 6, "hours": "0:00-24:00"}], "lat": 50.0878143, "lon": 14.432476, "services": 196608, "payMethods": 5}, {"id": "dp1090", "type": "ticketMachine", "name": "Slivenec", "address": "Ke Sm\u00edchovu 22, Slivenec, Praha 5", "openingHours": [{"from": 0, "to": 6, "hours": "0:00-24:00"}], "lat": 50.0192, "lon": 14.3543978, "services": 196608, "payMethods": 5}, {"id": "dp1092", "type": "ticketMachine", "name": "Zem\u011bd\u011blsk\u00e1 univerzita I (BUS)", "address": "Kam\u00fdck\u00e1, Suchdol, Praha 6", "openingHours": [{"from": 0, "to": 6, "hours": "0:00-24:00"}], "lat": 50.1325226, "lon": 14.3778353, "services": 196608, "payMethods": 5}, {"id": "dp1105", "type": "ticketMachine", "name": "Zoologick\u00e1 zahrada", "address": "U Trojsk\u00e9ho z\u00e1mku, Troja, Praha 7", "openingHours": [{"from": 0, "to": 6, "hours": "0:00-24:00"}], "lat": 50.1164169, "lon": 14.4114408, "services": 196608, "payMethods": 5}, {"id": "dp1108", "type": "ticketMachine", "name": "Obchodn\u00ed centrum S\u00e1rsk\u00e1 (Globus Zli\u010d\u00edn)", "address": "S\u00e1rsk\u00e1, T\u0159ebonice, Praha 5", "openingHours": [{"from": 0, "to": 6, "hours": "0:00-24:00"}], "lat": 50.0504036, "lon": 14.2978153, "services": 196608, "payMethods": 5}, {"id": "dp1109", "type": "ticketMachine", "name": "Vojensk\u00e1 nemocnice", "address": "Na Pet\u0159in\u00e1ch, B\u0159evnov, Praha 6", "openingHours": [{"from": 0, "to": 6, "hours": "0:00-24:00"}], "lat": 50.0933075, "lon": 14.39793, "services": 196608, "payMethods": 5}, {"id": "dp1115", "type": "ticketMachine", "name": "Vozovna Kobylisy", "address": "Klapkova, Kobylisy, Praha 8", "openingHours": [{"from": 0, "to": 6, "hours": "0:00-24:00"}], "lat": 50.13279, "lon": 14.4536276, "services": 196608, "payMethods": 5}, {"id": "dp1117", "type": "ticketMachine", "name": "S\u00eddli\u0161t\u011b Prosek", "address": "Vyso\u010dansk\u00e1, Prosek, Praha 9", "openingHours": [{"from": 0, "to": 6, "hours": "0:00-24:00"}], "lat": 50.1220932, "lon": 14.4939938, "services": 196608, "payMethods": 5}, {"id": "dp1120", "type": "ticketMachine", "name": "Ortenovo n\u00e1m\u011bst\u00ed", "address": "Ortenovo n\u00e1m\u011bst\u00ed, Hole\u0161ovice, Praha 7", "openingHours": [{"from": 0, "to": 6, "hours": "0:00-24:00"}], "lat": 50.1078873, "lon": 14.4472132, "services": 196608, "payMethods": 5}, {"id": "dp1126", "type": "ticketMachine", "name": "Zahradn\u00ed M\u011bsto z centra (pod n\u00e1dra\u017e\u00edm)", "address": "Pr\u016fb\u011b\u017en\u00e1, Zahradn\u00ed M\u011bsto, Praha 10", "openingHours": [{"from": 0, "to": 6, "hours": "0:00-24:00"}], "lat": 50.0621452, "lon": 14.50403, "services": 196608, "payMethods": 5}, {"id": "dp1130", "type": "ticketMachine", "name": "Vozovna St\u0159e\u0161ovice", "address": "Pato\u010dkova, St\u0159e\u0161ovice, Praha 6", "openingHours": [{"from": 0, "to": 6, "hours": "0:00-24:00"}], "lat": 50.0939941, "lon": 14.39023, "services": 196608, "payMethods": 5}, {"id": "dp1137", "type": "ticketMachine", "name": "Zahradn\u00ed M\u011bsto do centra (pod n\u00e1dra\u017e\u00edm)", "address": "Pr\u016fb\u011b\u017en\u00e1, Zahradn\u00ed M\u011bsto, Praha 10", "openingHours": [{"from": 0, "to": 6, "hours": "0:00-24:00"}], "lat": 50.0620651, "lon": 14.5042324, "services": 196608, "payMethods": 5}, {"id": "dp1145", "type": "ticketMachine", "name": "Obchodn\u00ed centrum Hostiva\u0159", "address": "\u0160vehlova, Zahradn\u00ed M\u011bsto, Praha 10", "openingHours": [{"from": 0, "to": 6, "hours": "0:00-24:00"}], "lat": 50.05346, "lon": 14.5194616, "services": 196608, "payMethods": 5}, {"id": "dp1146", "type": "ticketMachine", "name": "V\u00fdto\u0148", "address": "Ra\u0161\u00ednovo n\u00e1b\u0159e\u017e\u00ed, Nov\u00e9 M\u011bsto, Praha 2", "openingHours": [{"from": 0, "to": 6, "hours": "0:00-24:00"}], "lat": 50.0680161, "lon": 14.4150953, "services": 196608, "payMethods": 5}, {"id": "dp1147", "type": "ticketMachine", "name": "Zbraslavsk\u00e9 n\u00e1m\u011bst\u00ed", "address": "Zbraslavsk\u00e9 n\u00e1m\u011bst\u00ed, Zbraslav, Praha 5", "openingHours": [{"from": 0, "to": 6, "hours": "0:00-24:00"}], "lat": 49.9762878, "lon": 14.3938694, "services": 196608, "payMethods": 5}, {"id": "dp1148", "type": "ticketMachine", "name": "Kl\u00e1novice \u010cD", "address": "Kl\u00e1novice n\u00e1dra\u017e\u00ed, Praha 9", "openingHours": [{"from": 0, "to": 6, "hours": "0:00-24:00"}], "lat": 50.0872726, "lon": 14.66378, "services": 196608, "payMethods": 5}, {"id": "dp1149", "type": "ticketMachine", "name": "Poliklinika Mazursk\u00e1", "address": "Mazursk\u00e1, Bohnice, Praha 8", "openingHours": [{"from": 0, "to": 6, "hours": "0:00-24:00"}], "lat": 50.1271477, "lon": 14.4139833, "services": 196608, "payMethods": 5}, {"id": "dp1155", "type": "ticketMachine", "name": "Horn\u00ed Po\u010dernice \u010cD", "address": "Libu\u0148sk\u00e1, Horn\u00ed Po\u010dernice n\u00e1dra\u017e\u00ed, Praha 9", "openingHours": [{"from": 0, "to": 6, "hours": "0:00-24:00"}], "lat": 50.11657, "lon": 14.6128578, "services": 196608, "payMethods": 5}, {"id": "dp1156", "type": "ticketMachine", "name": "Marj\u00e1nka", "address": "B\u011blohorsk\u00e1 33, B\u0159evnov, Praha 6", "openingHours": [{"from": 0, "to": 6, "hours": "0:00-24:00"}], "lat": 50.0843735, "lon": 14.3754807, "services": 196608, "payMethods": 5}, {"id": "dp1157", "type": "ticketMachine", "name": "Kotl\u00e1\u0159ka", "address": "Plze\u0148sk\u00e1, Ko\u0161\u00ed\u0159e, Praha 5", "openingHours": [{"from": 0, "to": 6, "hours": "0:00-24:00"}], "lat": 50.069706, "lon": 14.362112, "services": 196608, "payMethods": 5}, {"id": "dp1167", "type": "ticketMachine", "name": "Michelsk\u00e1", "address": "U Plyn\u00e1rny 11, Michle, Praha 4", "openingHours": [{"from": 0, "to": 6, "hours": "0:00-24:00"}], "lat": 50.05514, "lon": 14.4537916, "services": 196608, "payMethods": 5}, {"id": "dp1169", "type": "ticketMachine", "name": "Balabenka", "address": "N\u00e1m\u011bst\u00ed Na Balabence, Libe\u0148, Praha 9", "openingHours": [{"from": 0, "to": 6, "hours": "0:00-24:00"}], "lat": 50.10502, "lon": 14.48328, "services": 196608, "payMethods": 5}, {"id": "dp1170", "type": "ticketMachine", "name": "Mysl\u00edkova", "address": "Mysl\u00edkova 27, Nov\u00e9 M\u011bsto, Praha 1", "openingHours": [{"from": 0, "to": 6, "hours": "0:00-24:00"}], "lat": 50.0781059, "lon": 14.4184341, "services": 196608, "payMethods": 5}, {"id": "dp1176", "type": "ticketMachine", "name": "Ohrada", "address": "Kon\u011bvova 114, \u017di\u017ekov, Praha 3", "openingHours": [{"from": 0, "to": 6, "hours": "0:00-24:00"}], "lat": 50.0902176, "lon": 14.4683189, "services": 196608, "payMethods": 5}, {"id": "dp1177", "type": "ticketMachine", "name": "Kaval\u00edrka", "address": "Plze\u0148sk\u00e1 189, Ko\u0161\u00ed\u0159e, Praha 5", "openingHours": [{"from": 0, "to": 6, "hours": "0:00-24:00"}], "lat": 50.0699, "lon": 14.3702631, "services": 196608, "payMethods": 5}, {"id": "dp1179", "type": "ticketMachine", "name": "\u010cakovice", "address": "Voj\u00e1\u010dkova, \u010cakovice, Praha 9", "openingHours": [{"from": 0, "to": 6, "hours": "0:00-24:00"}], "lat": 50.15131, "lon": 14.5310221, "services": 196608, "payMethods": 5}, {"id": "dp1188", "type": "ticketMachine", "name": "Kajet\u00e1nka", "address": "Pato\u010dkova 51, B\u0159evnov, Praha 6", "openingHours": [{"from": 0, "to": 6, "hours": "0:00-24:00"}], "lat": 50.0864563, "lon": 14.3721542, "services": 196608, "payMethods": 5}, {"id": "dp1195", "type": "ticketMachine", "name": "Ol\u0161ansk\u00e9 n\u00e1m\u011bst\u00ed", "address": "T\u00e1boritsk\u00e1 24, \u017di\u017ekov, Praha 3", "openingHours": [{"from": 0, "to": 6, "hours": "0:00-24:00"}], "lat": 50.08227, "lon": 14.4576893, "services": 196608, "payMethods": 5}, {"id": "dp1197", "type": "ticketMachine", "name": "Tupolevova", "address": "Tupolevova, Let\u0148any (parkovi\u0161t\u011b), Praha 9", "openingHours": [{"from": 0, "to": 6, "hours": "0:00-24:00"}], "lat": 50.13451, "lon": 14.50621, "services": 196608, "payMethods": 5}, {"id": "dp1198", "type": "ticketMachine", "name": "U Mat\u011bje", "address": "\u0160\u00e1reck\u00e1, Dejvice, Praha 6", "openingHours": [{"from": 0, "to": 6, "hours": "0:00-24:00"}], "lat": 50.1122131, "lon": 14.3798113, "services": 196608, "payMethods": 5}, {"id": "dp1206", "type": "ticketMachine", "name": "S\u00eddli\u0161t\u011b Lhotka", "address": "Lhoteck\u00e1, Kam\u00fdk, Praha 4", "openingHours": [{"from": 0, "to": 6, "hours": "0:00-24:00"}], "lat": 50.01698, "lon": 14.43298, "services": 196608, "payMethods": 5}, {"id": "dp1207", "type": "ticketMachine", "name": "\u0158evnice \u010cD", "address": "n\u00e1dra\u017e\u00ed, \u0158evnice", "openingHours": [{"from": 0, "to": 6, "hours": "0:00-24:00"}], "lat": 49.91649, "lon": 14.2388239, "services": 196608, "payMethods": 5}, {"id": "dp1208", "type": "ticketMachine", "name": "J\u00edlovsk\u00e1", "address": "Novodvorsk\u00e1, Lhotka, Praha 4", "openingHours": [{"from": 0, "to": 6, "hours": "0:00-24:00"}], "lat": 50.0266342, "lon": 14.4298468, "services": 196608, "payMethods": 5}, {"id": "dp1209", "type": "ticketMachine", "name": "N\u00e1m\u011bst\u00ed Brat\u0159\u00ed Synk\u016f", "address": "N\u00e1m\u011bst\u00ed Brat\u0159\u00ed Synk\u016f, Nusle, Praha 4", "openingHours": [{"from": 0, "to": 6, "hours": "0:00-24:00"}], "lat": 50.0645, "lon": 14.440793, "services": 196608, "payMethods": 5}, {"id": "dp1210", "type": "ticketMachine", "name": "Pavelkova", "address": "\u010ceskoslovensk\u00e9ho exilu, Mod\u0159any, Praha 4", "openingHours": [{"from": 0, "to": 6, "hours": "0:00-24:00"}], "lat": 50.0000458, "lon": 14.4268541, "services": 196608, "payMethods": 5}, {"id": "dp1216", "type": "ticketMachine", "name": "Bulovka", "address": "Bud\u00ednova 2, Libe\u0148, Praha 8", "openingHours": [{"from": 0, "to": 6, "hours": "0:00-24:00"}], "lat": 50.1156578, "lon": 14.4647055, "services": 196608, "payMethods": 5}, {"id": "dp1217", "type": "ticketMachine", "name": "\u0160vandovo divadlo", "address": "\u0160tef\u00e1nikova, Sm\u00edchov, Praha 5", "openingHours": [{"from": 0, "to": 6, "hours": "0:00-24:00"}], "lat": 50.0784454, "lon": 14.4043684, "services": 196608, "payMethods": 5}, {"id": "dp1218", "type": "ticketMachine", "name": "U Zvonu", "address": "Plze\u0148sk\u00e1, Ko\u0161\u00ed\u0159e, Praha 5", "openingHours": [{"from": 0, "to": 6, "hours": "0:00-24:00"}], "lat": 50.07152, "lon": 14.3868093, "services": 196608, "payMethods": 5}, {"id": "dp1219", "type": "ticketMachine", "name": "Nemocnice Kr\u010d", "address": "V\u00edde\u0148sk\u00e1, Kr\u010d, Praha 4", "openingHours": [{"from": 0, "to": 6, "hours": "0:00-24:00"}], "lat": 50.0308037, "lon": 14.4551878, "services": 196608, "payMethods": 5}, {"id": "dp1229", "type": "ticketMachine", "name": "Divadlo Gong", "address": "Sokolovsk\u00e1, Libe\u0148, Praha 9", "openingHours": [{"from": 0, "to": 6, "hours": "0:00-24:00"}], "lat": 50.1068535, "lon": 14.4887142, "services": 196608, "payMethods": 5}, {"id": "dp1230", "type": "ticketMachine", "name": "Poliklinika Vyso\u010dany", "address": "Sokolovsk\u00e1, Vyso\u010dany, Praha 9", "openingHours": [{"from": 0, "to": 6, "hours": "0:00-24:00"}], "lat": 50.10907, "lon": 14.4950819, "services": 196608, "payMethods": 5}, {"id": "dp1291", "type": "ticketMachine", "name": "Habrov\u00e1", "address": "Habrov\u00e1, \u017di\u017ekov, Praha 3", "openingHours": [{"from": 0, "to": 6, "hours": "0:00-24:00"}], "lat": 50.0878258, "lon": 14.4906521, "services": 196608, "payMethods": 5}, {"id": "dp1292", "type": "ticketMachine", "name": "Kl\u00e1novice camp", "address": "V Jehli\u010din\u011b 1040, Kl\u00e1novice, Praha 9", "openingHours": [{"from": 0, "to": 6, "hours": "0:00-24:00"}], "lat": 50.09873, "lon": 14.6849833, "services": 196608, "payMethods": 5}, {"id": "dp1293", "type": "ticketMachine", "name": "Viktoria \u017di\u017ekov (Husineck\u00e1)", "address": "Seifertova 47, \u017di\u017ekov, Praha 3", "openingHours": [{"from": 0, "to": 6, "hours": "0:00-24:00"}], "lat": 50.0850754, "lon": 14.4451122, "services": 196608, "payMethods": 5}, {"id": "dp1296", "type": "ticketMachine", "name": "Pla\u0148ansk\u00e1", "address": "Po\u010dernick\u00e1, Male\u0161ice, Praha 10", "openingHours": [{"from": 0, "to": 6, "hours": "0:00-24:00"}], "lat": 50.08176, "lon": 14.498951, "services": 196608, "payMethods": 5}, {"id": "dp1297", "type": "ticketMachine", "name": "Bohemians", "address": "Vr\u0161ovick\u00e1 44, Vr\u0161ovice, Praha 10", "openingHours": [{"from": 0, "to": 6, "hours": "0:00-24:00"}], "lat": 50.0663376, "lon": 14.456233, "services": 196608, "payMethods": 5}, {"id": "dp1298", "type": "ticketMachine", "name": "Lehovec", "address": "Pod\u011bbradsk\u00e1, Hloub\u011bt\u00edn, Praha 9", "openingHours": [{"from": 0, "to": 6, "hours": "0:00-24:00"}], "lat": 50.10685, "lon": 14.5471535, "services": 196608, "payMethods": 5}, {"id": "dp1343", "type": "ticketMachine", "name": "S\u00eddli\u0161t\u011b Bohnice", "address": "Zho\u0159eleck\u00e1, Bohnice, Praha 8", "openingHours": [{"from": 0, "to": 6, "hours": "0:00-24:00"}], "lat": 50.1314659, "lon": 14.4116478, "services": 196608, "payMethods": 5}, {"id": "dp1344", "type": "ticketMachine", "name": "Odra", "address": "Lod\u017esk\u00e1, Bohnice, Praha 8", "openingHours": [{"from": 0, "to": 6, "hours": "0:00-24:00"}], "lat": 50.1307259, "lon": 14.4237432, "services": 196608, "payMethods": 5}, {"id": "dp1345", "type": "ticketMachine", "name": "Koleje Strahov", "address": "Van\u00ed\u010dkova, B\u0159evnov, Praha 6", "openingHours": [{"from": 0, "to": 6, "hours": "0:00-24:00"}], "lat": 50.08077, "lon": 14.39016, "services": 196608, "payMethods": 5}, {"id": "dp1346", "type": "ticketMachine", "name": "Pra\u017esk\u00fd hrad", "address": "Jelen\u00ed, Hrad\u010dany, Praha 1", "openingHours": [{"from": 0, "to": 6, "hours": "0:00-24:00"}], "lat": 50.0916557, "lon": 14.3602142, "services": 196608, "payMethods": 5}, {"id": "dp1348", "type": "ticketMachine", "name": "S\u00eddli\u0161t\u011b \u010cerven\u00fd Vrch", "address": "Evropsk\u00e1, Vokovice, Praha 6", "openingHours": [{"from": 0, "to": 6, "hours": "0:00-24:00"}], "lat": 50.09787, "lon": 14.3594046, "services": 196608, "payMethods": 5}, {"id": "dp1354", "type": "ticketMachine", "name": "Krakov", "address": "Lod\u017esk\u00e1, Bohnice, Praha 8", "openingHours": [{"from": 0, "to": 6, "hours": "0:00-24:00"}], "lat": 50.1279564, "lon": 14.4173241, "services": 196608, "payMethods": 5}, {"id": "dp1355", "type": "ticketMachine", "name": "Klamovka", "address": "Plze\u0148sk\u00e1 129b, Ko\u0161\u00ed\u0159e, Praha 5", "openingHours": [{"from": 0, "to": 6, "hours": "0:00-24:00"}], "lat": 50.0704651, "lon": 14.3790445, "services": 196608, "payMethods": 5}, {"id": "dp1356", "type": "ticketMachine", "name": "\u010cimice", "address": "\u010cimick\u00e1, \u010cimice, Praha 8", "openingHours": [{"from": 0, "to": 6, "hours": "0:00-24:00"}], "lat": 50.1409645, "lon": 14.4304466, "services": 196608, "payMethods": 5}, {"id": "dp1357", "type": "ticketMachine", "name": "S\u00eddli\u0161t\u011b \u010cimice", "address": "\u010cimick\u00e1, \u010cimice, Praha 8", "openingHours": [{"from": 0, "to": 6, "hours": "0:00-24:00"}], "lat": 50.14418, "lon": 14.4320879, "services": 196608, "payMethods": 5}, {"id": "dp1358", "type": "ticketMachine", "name": "\u0158ep\u00ednsk\u00e1", "address": "\u010cimick\u00e1, \u010cimice, Praha 8", "openingHours": [{"from": 0, "to": 6, "hours": "0:00-24:00"}], "lat": 50.13355, "lon": 14.4302511, "services": 196608, "payMethods": 5}, {"id": "dp1359", "type": "ticketMachine", "name": "Podhajsk\u00e1 pole", "address": "\u010cimick\u00e1, Bohnice, Praha 8", "openingHours": [{"from": 0, "to": 6, "hours": "0:00-24:00"}], "lat": 50.1295738, "lon": 14.4307356, "services": 196608, "payMethods": 5}, {"id": "dp1366", "type": "ticketMachine", "name": "M\u011bstsk\u00fd archiv", "address": "Bla\u017eimsk\u00e1, Chodov, Praha 4", "openingHours": [{"from": 0, "to": 6, "hours": "0:00-24:00"}], "lat": 50.041153, "lon": 14.4955854, "services": 196608, "payMethods": 5}, {"id": "dp1367", "type": "ticketMachine", "name": "Vozovna \u017di\u017ekov", "address": "Kon\u011bvova, \u017di\u017ekov, Praha 3", "openingHours": [{"from": 0, "to": 6, "hours": "0:00-24:00"}], "lat": 50.0917244, "lon": 14.4757662, "services": 196608, "payMethods": 5}, {"id": "dp1369", "type": "ticketMachine", "name": "S\u00eddli\u0161t\u011b \u010e\u00e1blice", "address": "\u010e\u00e1blick\u00e1, \u010e\u00e1blice, Praha 8", "openingHours": [{"from": 0, "to": 6, "hours": "0:00-24:00"}], "lat": 50.1326523, "lon": 14.47891, "services": 196608, "payMethods": 5}, {"id": "dp1404", "type": "ticketMachine", "name": "Hlu\u0161i\u010dkova", "address": "Plze\u0148sk\u00e1 265, \u0158epy, Praha 5", "openingHours": [{"from": 0, "to": 6, "hours": "0:00-24:00"}], "lat": 50.0637321, "lon": 14.3161459, "services": 196608, "payMethods": 5}, {"id": "dp1407", "type": "ticketMachine", "name": "S\u00eddli\u0161t\u011b Male\u0161ice", "address": "Po\u010dernick\u00e1, Male\u0161ice, Praha 10", "openingHours": [{"from": 0, "to": 6, "hours": "0:00-24:00"}], "lat": 50.08318, "lon": 14.5083208, "services": 196608, "payMethods": 5}, {"id": "dp1408", "type": "ticketMachine", "name": "Hlavn\u00ed", "address": "Hlavn\u00ed, Spo\u0159ilov, Praha 4", "openingHours": [{"from": 0, "to": 6, "hours": "0:00-24:00"}], "lat": 50.04713, "lon": 14.4865627, "services": 196608, "payMethods": 5}, {"id": "dp1409", "type": "ticketMachine", "name": "Obchodn\u00ed n\u00e1m\u011bst\u00ed", "address": "Obchodn\u00ed n\u00e1m\u011bst\u00ed, Mod\u0159any, Praha 4", "openingHours": [{"from": 0, "to": 6, "hours": "0:00-24:00"}], "lat": 50.005024, "lon": 14.4046421, "services": 196608, "payMethods": 5}, {"id": "dp1410", "type": "ticketMachine", "name": "Otakarova", "address": "Otakarova, Nusle, Praha 4", "openingHours": [{"from": 0, "to": 6, "hours": "0:00-24:00"}], "lat": 50.0655937, "lon": 14.4399729, "services": 196608, "payMethods": 5}, {"id": "dp1434", "type": "ticketMachine", "name": "Str\u00e1n\u010dice \u010cD", "address": "n\u00e1dra\u017e\u00ed, Str\u00e1n\u010dice", "openingHours": [{"from": 0, "to": 6, "hours": "0:00-24:00"}], "lat": 49.9495468, "lon": 14.6776781, "services": 196608, "payMethods": 5}, {"id": "dp1445", "type": "ticketMachine", "name": "Halenkovsk\u00e1", "address": "K\u0159ivatcov\u00e1 244/1, Zli\u010d\u00edn, Praha 5", "openingHours": [{"from": 0, "to": 6, "hours": "0:00-24:00"}], "lat": 50.0632439, "lon": 14.2867861, "services": 196608, "payMethods": 5}, {"id": "dp1453", "type": "ticketMachine", "name": "Palack\u00e9ho n\u00e1m\u011bst\u00ed", "address": "Palack\u00e9ho n\u00e1m\u011bst\u00ed, Nov\u00e9 M\u011bsto, Praha 2", "openingHours": [{"from": 0, "to": 6, "hours": "0:00-24:00"}], "lat": 50.0733528, "lon": 14.414856, "services": 196608, "payMethods": 5}, {"id": "dp1464", "type": "ticketMachine", "name": "Mor\u00e1\u0148", "address": "Karlovo n\u00e1m\u011bst\u00ed, Nov\u00e9 M\u011bsto, Praha 2", "openingHours": [{"from": 0, "to": 6, "hours": "0:00-24:00"}], "lat": 50.07416, "lon": 14.4187222, "services": 196608, "payMethods": 5}, {"id": "dp1504", "type": "ticketMachine", "name": "Strossmayerovo n\u00e1m\u011bst\u00ed", "address": "Milady Hor\u00e1kov\u00e9 7, Hole\u0161ovice, Praha 7", "openingHours": [{"from": 0, "to": 6, "hours": "0:00-24:00"}], "lat": 50.0603, "lon": 14.4499245, "services": 196608, "payMethods": 5}, {"id": "dp1839", "type": "ticketMachine", "name": "Hlavn\u00ed n\u00e1dra\u017e\u00ed", "address": "Bolzanova, Nov\u00e9 M\u011bsto, Praha 1", "openingHours": [{"from": 0, "to": 6, "hours": "0:00-24:00"}], "lat": 50.085865, "lon": 14.4355927, "services": 196608, "payMethods": 5}, {"id": "dp2022", "type": "ticketMachine", "name": "Divok\u00e1 \u0160\u00e1rka", "address": "Evropsk\u00e1, Liboc, Praha 6", "openingHours": [{"from": 0, "to": 6, "hours": "0:00-24:00"}], "lat": 50.0927238, "lon": 14.32272, "services": 196864, "payMethods": 5}, {"id": "dp2023", "type": "ticketMachine", "name": "Vlastina", "address": "Vlastina, Liboc, Praha 6", "openingHours": [{"from": 0, "to": 6, "hours": "0:00-24:00"}], "lat": 50.09121, "lon": 14.3168135, "services": 196864, "payMethods": 5}, {"id": "dp2024", "type": "ticketMachine", "name": "S\u00eddli\u0161t\u011b Na D\u011bdin\u011b", "address": "Vlastina, Ruzyn\u011b, Praha 6", "openingHours": [{"from": 0, "to": 6, "hours": "0:00-24:00"}], "lat": 50.0897751, "lon": 14.3099184, "services": 196864, "payMethods": 5}, {"id": "dp2025", "type": "ticketMachine", "name": "Ciolkovsk\u00e9ho", "address": "Vlastina, Ruzyn\u011b, Praha 6", "openingHours": [{"from": 0, "to": 6, "hours": "0:00-24:00"}], "lat": 50.0879974, "lon": 14.307127, "services": 196864, "payMethods": 5}, {"id": "dp2026", "type": "ticketMachine", "name": "D\u011bdina", "address": "Drnovsk\u00e1, Ruzyn\u011b, Praha 6", "openingHours": [{"from": 0, "to": 6, "hours": "0:00-24:00"}], "lat": 50.08933, "lon": 14.3019047, "services": 196864, "payMethods": 5}, {"id": "dp2011", "type": "ticketMachine", "name": "Leti\u0161t\u011b VH Praha, Termin\u00e1l 2", "address": "Hala, Ruzyn\u011b, Praha 6", "openingHours": [{"from": 0, "to": 6, "hours": "0:00-24:00"}], "lat": 50.1052971, "lon": 14.2673779, "services": 196864, "payMethods": 13}, {"id": "dp2013", "type": "ticketMachine", "name": "Leti\u0161t\u011b VH Praha, Termin\u00e1l 2", "address": "Zast\u00e1vka autobus\u016f do centra, Ruzyn\u011b, Praha 6", "openingHours": [{"from": 0, "to": 6, "hours": "0:00-24:00"}], "lat": 50.10528, "lon": 14.2674723, "services": 196864, "payMethods": 13}, {"id": "dp2017", "type": "ticketMachine", "name": "Leti\u0161t\u011b VH Praha, Termin\u00e1l 1", "address": "Zast\u00e1vka autobus\u016f do centra, Ruzyn\u011b, Praha 6", "openingHours": [{"from": 0, "to": 6, "hours": "0:00-24:00"}], "lat": 50.1074, "lon": 14.2682467, "services": 196864, "payMethods": 13}, {"id": "dp2019", "type": "ticketMachine", "name": "Leti\u0161t\u011b VH Praha, Termin\u00e1l 1", "address": "Zast\u00e1vka autobus\u016f do centra, Ruzyn\u011b, Praha 6", "openingHours": [{"from": 0, "to": 6, "hours": "0:00-24:00"}], "lat": 50.1077423, "lon": 14.2686033, "services": 196864, "payMethods": 13}, {"id": "dp2301", "type": "ticketMachine", "name": "Leti\u0161t\u011b VH Praha, Termin\u00e1l 3", "address": "Hala, Ruzyn\u011b, Praha 6", "openingHours": [{"from": 0, "to": 6, "hours": "0:00-24:00"}], "lat": 50.1077423, "lon": 14.2676249, "services": 196864, "payMethods": 13}, {"id": "dp2302", "type": "ticketMachine", "name": "Leti\u0161t\u011b VH Praha, Termin\u00e1l 1", "address": "Vchod D, Ruzyn\u011b, Praha 6", "openingHours": [{"from": 0, "to": 6, "hours": "0:00-24:00"}], "lat": 50.1078262, "lon": 14.2682219, "services": 196864, "payMethods": 13}, {"id": "dp2303", "type": "ticketMachine", "name": "Leti\u0161t\u011b VH Praha, Termin\u00e1l 1", "address": "Vchod E, Ruzyn\u011b, Praha 6", "openingHours": [{"from": 0, "to": 6, "hours": "0:00-24:00"}], "lat": 50.1076469, "lon": 14.268034, "services": 196864, "payMethods": 13}, {"id": "dp2020", "type": "ticketMachine", "name": "Quinn Hotels Praha (Hilton)", "address": "Pob\u0159e\u017en\u00ed 311/1, Karl\u00edn, Praha 8", "openingHours": [{"from": 0, "to": 6, "hours": "0:00-24:00"}], "lat": 50.0930061, "lon": 14.4395733, "services": 196864, "payMethods": 13}, {"id": "dp2900", "type": "ticketMachine", "name": "Bene\u0161ov, autobusov\u00e9 n\u00e1dra\u017e\u00ed", "address": "N\u00e1dra\u017en\u00ed, Bene\u0161ov, Bene\u0161ov", "openingHours": [{"from": 0, "to": 6, "hours": "0:00-24:00"}], "lat": 49.7795448, "lon": 14.68394, "services": 196864, "payMethods": 13}, {"id": "dp2671", "type": "ticketMachine", "name": "Nemocnice Motol", "address": "Stanice metra, Praha 5", "openingHours": [{"from": 0, "to": 6, "hours": "5:00-24:00"}], "lat": 50.0751762, "lon": 14.3407946, "services": 196864, "payMethods": 13}, {"id": "dp2661", "type": "ticketMachine", "name": "Pet\u0159iny", "address": "Stanice metra, Praha 6", "openingHours": [{"from": 0, "to": 6, "hours": "5:00-24:00"}], "lat": 50.0867043, "lon": 14.3451681, "services": 196864, "payMethods": 13}, {"id": "dp2663", "type": "ticketMachine", "name": "Pet\u0159iny", "address": "Stanice metra, Praha 6", "openingHours": [{"from": 0, "to": 6, "hours": "5:00-24:00"}], "lat": 50.0879173, "lon": 14.3445034, "services": 196864, "payMethods": 13}, {"id": "dp2651", "type": "ticketMachine", "name": "N\u00e1dra\u017e\u00ed Veleslav\u00edn", "address": "Stanice metra, Praha 6", "openingHours": [{"from": 0, "to": 6, "hours": "5:00-24:00"}], "lat": 50.09558, "lon": 14.34678, "services": 196864, "payMethods": 13}, {"id": "dp2654", "type": "ticketMachine", "name": "N\u00e1dra\u017e\u00ed Veleslav\u00edn", "address": "v\u00fdtah, Stanice metra, Praha 6", "openingHours": [{"from": 0, "to": 6, "hours": "5:00-24:00"}], "lat": 50.09558, "lon": 14.34678, "services": 196864, "payMethods": 13}, {"id": "dp2641", "type": "ticketMachine", "name": "Bo\u0159islavka", "address": "Stanice metra, Praha 6", "openingHours": [{"from": 0, "to": 6, "hours": "5:00-24:00"}], "lat": 50.0985947, "lon": 14.3646326, "services": 196864, "payMethods": 13}, {"id": "dp2642", "type": "ticketMachine", "name": "Bo\u0159islavka", "address": "Stanice metra, Praha 6", "openingHours": [{"from": 0, "to": 6, "hours": "5:00-24:00"}], "lat": 50.0983353, "lon": 14.3621521, "services": 196864, "payMethods": 13}, {"id": "dp2111", "type": "ticketMachine", "name": "Dejvick\u00e1", "address": "vestibul Evropsk\u00e1, Stanice metra, Praha 6", "openingHours": [{"from": 0, "to": 6, "hours": "5:00-24:00"}], "lat": 50.1002922, "lon": 14.3918743, "services": 196864, "payMethods": 13}, {"id": "dp2121", "type": "ticketMachine", "name": "Dejvick\u00e1", "address": "vestibul V\u00edt\u011bzn\u00e9 n\u00e1m\u011bst\u00ed, Stanice metra, Praha 6", "openingHours": [{"from": 0, "to": 6, "hours": "5:00-24:00"}], "lat": 50.10048, "lon": 14.3937454, "services": 196864, "payMethods": 13}, {"id": "dp2131", "type": "ticketMachine", "name": "Hrad\u010dansk\u00e1", "address": "Stanice metra, Praha 6", "openingHours": [{"from": 0, "to": 6, "hours": "5:00-24:00"}], "lat": 50.0972328, "lon": 14.4048109, "services": 196864, "payMethods": 13}, {"id": "dp2140", "type": "ticketMachine", "name": "Malostransk\u00e1", "address": "Stanice metra, Praha 1", "openingHours": [{"from": 0, "to": 6, "hours": "5:00-24:00"}], "lat": 50.0910568, "lon": 14.4094067, "services": 196864, "payMethods": 13}, {"id": "dp2151", "type": "ticketMachine", "name": "Starom\u011bstsk\u00e1", "address": "Stanice metra, Praha 1", "openingHours": [{"from": 0, "to": 6, "hours": "5:00-24:00"}], "lat": 50.08853, "lon": 14.4160748, "services": 196864, "payMethods": 13}, {"id": "dp2161", "type": "ticketMachine", "name": "M\u016fstek A (historick\u00fd)", "address": "vestibul M\u016fstek, Stanice metra, Praha 1", "openingHours": [{"from": 0, "to": 6, "hours": "5:00-24:00"}], "lat": 50.08416, "lon": 14.4234524, "services": 196864, "payMethods": 13}, {"id": "dp2163", "type": "ticketMachine", "name": "M\u016fstek", "address": "vestibul M\u016fstek, Stanice metra, Praha 1", "openingHours": [{"from": 0, "to": 6, "hours": "5:00-24:00"}], "lat": 50.08416, "lon": 14.4234524, "services": 196864, "payMethods": 13}, {"id": "dp2150", "type": "ticketMachine", "name": "M\u016fstek", "address": "v\u00fdtah, Stanice metra, Praha 1", "openingHours": [{"from": 0, "to": 6, "hours": "5:00-24:00"}], "lat": 50.0837059, "lon": 14.4239435, "services": 196864, "payMethods": 13}, {"id": "dp2171", "type": "ticketMachine", "name": "M\u016fstek", "address": "vestibul V\u00e1clavsk\u00e9 n\u00e1m\u011bst\u00ed, Stanice metra, Praha 1", "openingHours": [{"from": 0, "to": 6, "hours": "5:00-24:00"}], "lat": 50.08208, "lon": 14.4264622, "services": 196864, "payMethods": 13}, {"id": "dp2175", "type": "ticketMachine", "name": "V\u00e1clavsk\u00e9 n\u00e1m\u011bst\u00ed", "address": "Vodi\u010dkova 41, Nov\u00e9 M\u011bsto, Praha 1", "openingHours": [{"from": 0, "to": 6, "hours": "0:00-24:00"}], "lat": 50.08219, "lon": 14.42587, "services": 196864, "payMethods": 13}, {"id": "dp2181", "type": "ticketMachine", "name": "Muzeum", "address": "vstup C, Stanice metra, Praha 1", "openingHours": [{"from": 0, "to": 6, "hours": "5:00-24:00"}], "lat": 50.0795441, "lon": 14.4300671, "services": 196864, "payMethods": 13}, {"id": "dp2185", "type": "ticketMachine", "name": "Muzeum", "address": "vstup A, Stanice metra, Praha 1", "openingHours": [{"from": 0, "to": 6, "hours": "5:00-24:00"}], "lat": 50.0795441, "lon": 14.4300671, "services": 196864, "payMethods": 13}, {"id": "dp2187", "type": "ticketMachine", "name": "Muzeum", "address": "n\u00e1stupi\u0161t\u011b v\u00fdtah C, Stanice metra, Praha 1", "openingHours": [{"from": 0, "to": 6, "hours": "5:00-24:00"}], "lat": 50.0795441, "lon": 14.4300671, "services": 196864, "payMethods": 13}, {"id": "dp160", "type": "ticketMachine", "name": "Muzeum", "address": "n\u00e1stupi\u0161t\u011b v\u00fdtah A, Stanice metra, Praha 1", "openingHours": [{"from": 0, "to": 6, "hours": "5:00-24:00"}], "lat": 50.0795441, "lon": 14.4300671, "services": 196608, "payMethods": 5}, {"id": "dp2191", "type": "ticketMachine", "name": "N\u00e1m\u011bst\u00ed M\u00edru", "address": "Stanice metra, Praha 2", "openingHours": [{"from": 0, "to": 6, "hours": "5:00-24:00"}], "lat": 50.0751076, "lon": 14.4373884, "services": 196864, "payMethods": 13}, {"id": "dp2201", "type": "ticketMachine", "name": "Ji\u0159\u00edho z Pod\u011bbrad", "address": "Stanice metra, Praha 3", "openingHours": [{"from": 0, "to": 6, "hours": "5:00-24:00"}], "lat": 50.07743, "lon": 14.4491682, "services": 196864, "payMethods": 13}, {"id": "dp2203", "type": "ticketMachine", "name": "Ji\u0159\u00edho z Pod\u011bbrad v\u00fdtah", "address": "Stanice metra, Praha 3", "openingHours": [{"from": 0, "to": 6, "hours": "5:00-24:00"}], "lat": 50.07743, "lon": 14.4491682, "services": 196864, "payMethods": 13}, {"id": "dp2211", "type": "ticketMachine", "name": "Flora", "address": "Stanice metra, Praha 3", "openingHours": [{"from": 0, "to": 6, "hours": "5:00-24:00"}], "lat": 50.078022, "lon": 14.4612284, "services": 196864, "payMethods": 13}, {"id": "dp2221", "type": "ticketMachine", "name": "\u017delivsk\u00e9ho", "address": "Stanice metra, Praha 3", "openingHours": [{"from": 0, "to": 6, "hours": "5:00-24:00"}], "lat": 50.0785942, "lon": 14.4737549, "services": 196864, "payMethods": 13}, {"id": "dp2231", "type": "ticketMachine", "name": "Stra\u0161nick\u00e1", "address": "Stanice metra, Praha 10", "openingHours": [{"from": 0, "to": 6, "hours": "5:00-24:00"}], "lat": 50.07268, "lon": 14.4911871, "services": 196864, "payMethods": 13}, {"id": "dp2241", "type": "ticketMachine", "name": "Skalka", "address": "Stanice metra, Praha 10", "openingHours": [{"from": 0, "to": 6, "hours": "5:00-24:00"}], "lat": 50.0680275, "lon": 14.5081177, "services": 196864, "payMethods": 13}, {"id": "dp2251", "type": "ticketMachine", "name": "Depo Hostiva\u0159", "address": "Stanice metra, Praha 10", "openingHours": [{"from": 0, "to": 6, "hours": "5:00-24:00"}], "lat": 50.0756454, "lon": 14.5154972, "services": 196864, "payMethods": 13}, {"id": "dp2321", "type": "ticketMachine", "name": "Zli\u010d\u00edn", "address": "Stanice metra, Praha 5", "openingHours": [{"from": 0, "to": 6, "hours": "5:00-24:00"}], "lat": 50.0537834, "lon": 14.2905922, "services": 196864, "payMethods": 13}, {"id": "dp2331", "type": "ticketMachine", "name": "Stod\u016flky v\u00fdchod", "address": "Stanice metra, Praha 5", "openingHours": [{"from": 0, "to": 6, "hours": "5:00-24:00"}], "lat": 50.04681, "lon": 14.3079872, "services": 196864, "payMethods": 13}, {"id": "dp2325", "type": "ticketMachine", "name": "Stod\u016flky z\u00e1pad", "address": "Stanice metra, Praha 5", "openingHours": [{"from": 0, "to": 6, "hours": "5:00-24:00"}], "lat": 50.04681, "lon": 14.3079872, "services": 196864, "payMethods": 13}, {"id": "dp2341", "type": "ticketMachine", "name": "Luka", "address": "Stanice metra, Praha 5", "openingHours": [{"from": 0, "to": 6, "hours": "5:00-24:00"}], "lat": 50.0453033, "lon": 14.3222942, "services": 196864, "payMethods": 13}, {"id": "dp2351", "type": "ticketMachine", "name": "Lu\u017einy", "address": "Stanice metra, Praha 5", "openingHours": [{"from": 0, "to": 6, "hours": "5:00-24:00"}], "lat": 50.0445938, "lon": 14.331399, "services": 196864, "payMethods": 13}, {"id": "dp2361", "type": "ticketMachine", "name": "H\u016frka", "address": "Stanice metra, Praha 5", "openingHours": [{"from": 0, "to": 6, "hours": "5:00-24:00"}], "lat": 50.04998, "lon": 14.3418646, "services": 196864, "payMethods": 13}, {"id": "dp2371", "type": "ticketMachine", "name": "Nov\u00e9 Butovice", "address": "z\u00e1padn\u00ed vestibul, Stanice metra, Praha 5", "openingHours": [{"from": 0, "to": 6, "hours": "5:00-24:00"}], "lat": 50.05085, "lon": 14.3532047, "services": 196864, "payMethods": 13}, {"id": "dp2381", "type": "ticketMachine", "name": "Nov\u00e9 Butovice", "address": "v\u00fdchodn\u00ed vestibul, Stanice metra, Praha 5", "openingHours": [{"from": 0, "to": 6, "hours": "5:00-24:00"}], "lat": 50.05085, "lon": 14.3532047, "services": 196864, "payMethods": 13}, {"id": "dp2391", "type": "ticketMachine", "name": "Jinonice", "address": "Stanice metra, Praha 5", "openingHours": [{"from": 0, "to": 6, "hours": "5:00-24:00"}], "lat": 50.0545769, "lon": 14.3709145, "services": 196864, "payMethods": 13}, {"id": "dp2401", "type": "ticketMachine", "name": "Radlick\u00e1", "address": "Stanice metra, Praha 5", "openingHours": [{"from": 0, "to": 6, "hours": "5:00-24:00"}], "lat": 50.058094, "lon": 14.3890858, "services": 196864, "payMethods": 13}, {"id": "dp2411", "type": "ticketMachine", "name": "Sm\u00edchovsk\u00e9 n\u00e1dra\u017e\u00ed", "address": "Stanice metra, Praha 5", "openingHours": [{"from": 0, "to": 6, "hours": "5:00-24:00"}], "lat": 50.0606346, "lon": 14.408761, "services": 196864, "payMethods": 13}, {"id": "dp2421", "type": "ticketMachine", "name": "Sm\u00edchovsk\u00e9 n\u00e1dra\u017e\u00ed", "address": "Stanice metra, Praha 5", "openingHours": [{"from": 0, "to": 6, "hours": "5:00-24:00"}], "lat": 50.0611763, "lon": 14.4087286, "services": 196864, "payMethods": 13}, {"id": "dp2431", "type": "ticketMachine", "name": "And\u011bl Na Kn\u00ed\u017eec\u00ed", "address": "vestibul Na Kn\u00ed\u017eec\u00ed, Stanice metra, Praha 5", "openingHours": [{"from": 0, "to": 6, "hours": "5:00-24:00"}], "lat": 50.07149, "lon": 14.4039869, "services": 196864, "payMethods": 13}, {"id": "dp2049", "type": "ticketMachine", "name": "And\u011bl tramvaj", "address": "N\u00e1dra\u017en\u00ed, Sm\u00edchov, Praha 5", "openingHours": [{"from": 0, "to": 6, "hours": "5:00-24:00"}], "lat": 50.0714951, "lon": 14.404213, "services": 196864, "payMethods": 13}, {"id": "dp2448", "type": "ticketMachine", "name": "And\u011bl", "address": "v\u00fdtah, Stanice metra, Praha 5", "openingHours": [{"from": 0, "to": 6, "hours": "5:00-24:00"}], "lat": 50.0702934, "lon": 14.4036217, "services": 196864, "payMethods": 13}, {"id": "dp2441", "type": "ticketMachine", "name": "And\u011bl", "address": "vestibul U And\u011bla, Stanice metra, Praha 5", "openingHours": [{"from": 0, "to": 6, "hours": "5:00-24:00"}], "lat": 50.07149, "lon": 14.4039869, "services": 196864, "payMethods": 13}, {"id": "dp2451", "type": "ticketMachine", "name": "Karlovo n\u00e1m\u011bst\u00ed", "address": "vestibul Palack\u00e9ho n\u00e1m\u011bst\u00ed, Stanice metra, Praha 2", "openingHours": [{"from": 0, "to": 6, "hours": "5:00-24:00"}], "lat": 50.07344, "lon": 14.415206, "services": 196864, "payMethods": 13}, {"id": "dp2453", "type": "ticketMachine", "name": "Karlovo n\u00e1m\u011bst\u00ed v\u00fdtah", "address": "v\u00fdtah, Stanice metra, Praha 2", "openingHours": [{"from": 0, "to": 6, "hours": "5:00-24:00"}], "lat": 50.07344, "lon": 14.415206, "services": 196864, "payMethods": 13}, {"id": "dp2461", "type": "ticketMachine", "name": "Karlovo n\u00e1m\u011bst\u00ed", "address": "vestibul Karlovo n\u00e1m\u011bst\u00ed, Stanice metra, Praha 2", "openingHours": [{"from": 0, "to": 6, "hours": "5:00-24:00"}], "lat": 50.07556, "lon": 14.4185867, "services": 196864, "payMethods": 13}, {"id": "dp474", "type": "ticketMachine", "name": "U Nemocnice", "address": "U Nemocnice, Nov\u00e9 M\u011bsto (recepce VFN), Praha 2", "openingHours": [{"from": 0, "to": 6, "hours": "0:00-24:00"}], "lat": 50.0734673, "lon": 14.421175, "services": 196608, "payMethods": 5}, {"id": "dp2471", "type": "ticketMachine", "name": "N\u00e1rodn\u00ed t\u0159\u00edda", "address": "stanice metra, Praha 1", "openingHours": [{"from": 0, "to": 6, "hours": "5:00-24:00"}], "lat": 50.08122, "lon": 14.4199743, "services": 196864, "payMethods": 13}, {"id": "dp2481", "type": "ticketMachine", "name": "M\u016fstek", "address": "Stanice metra, Praha 1", "openingHours": [{"from": 0, "to": 6, "hours": "5:00-24:00"}], "lat": 50.0830765, "lon": 14.42216, "services": 196864, "payMethods": 13}, {"id": "dp2491", "type": "ticketMachine", "name": "N\u00e1m\u011bst\u00ed Republiky", "address": "Kotva, Stanice metra, Praha 1", "openingHours": [{"from": 0, "to": 6, "hours": "5:00-24:00"}], "lat": 50.0885849, "lon": 14.4285126, "services": 196864, "payMethods": 13}, {"id": "dp2501", "type": "ticketMachine", "name": "N\u00e1m\u011bst\u00ed Republiky St\u0159ed", "address": "St\u0159ed, Stanice metra, Praha 1", "openingHours": [{"from": 0, "to": 6, "hours": "5:00-24:00"}], "lat": 50.0885849, "lon": 14.4285126, "services": 196864, "payMethods": 13}, {"id": "dp2531", "type": "ticketMachine", "name": "K\u0159i\u017e\u00edkova", "address": "Stanice metra, Praha 8", "openingHours": [{"from": 0, "to": 6, "hours": "5:00-24:00"}], "lat": 50.09369, "lon": 14.4515972, "services": 196864, "payMethods": 13}, {"id": "dp2541", "type": "ticketMachine", "name": "Invalidovna", "address": "Stanice metra, Praha 8", "openingHours": [{"from": 0, "to": 6, "hours": "5:00-24:00"}], "lat": 50.0973167, "lon": 14.4643574, "services": 196864, "payMethods": 13}, {"id": "dp2551", "type": "ticketMachine", "name": "Palmovka", "address": "vestibul Palmovka, Stanice metra, Praha 8", "openingHours": [{"from": 0, "to": 6, "hours": "5:00-24:00"}], "lat": 50.10378, "lon": 14.4734564, "services": 196864, "payMethods": 13}, {"id": "dp2561", "type": "ticketMachine", "name": "Palmovka", "address": "vestibul Na \u017dertv\u00e1ch, Stanice metra, Praha 8", "openingHours": [{"from": 0, "to": 6, "hours": "5:00-24:00"}], "lat": 50.10378, "lon": 14.4734564, "services": 196864, "payMethods": 13}, {"id": "dp2581", "type": "ticketMachine", "name": "Vyso\u010dansk\u00e1", "address": "vestibul N\u00e1dra\u017e\u00ed Vyso\u010dany, Stanice metra, Praha 9", "openingHours": [{"from": 0, "to": 6, "hours": "5:00-24:00"}], "lat": 50.1099472, "lon": 14.4992523, "services": 196864, "payMethods": 13}, {"id": "dp2591", "type": "ticketMachine", "name": "Vyso\u010dansk\u00e1", "address": "vestibul Vyso\u010dansk\u00e1, Stanice metra, Praha 9", "openingHours": [{"from": 0, "to": 6, "hours": "5:00-24:00"}], "lat": 50.11039, "lon": 14.5018187, "services": 196864, "payMethods": 13}, {"id": "dp2601", "type": "ticketMachine", "name": "Kolbenova", "address": "Stanice metra, Praha 9", "openingHours": [{"from": 0, "to": 6, "hours": "5:00-24:00"}], "lat": 50.110466, "lon": 14.5151911, "services": 196864, "payMethods": 13}, {"id": "dp2611", "type": "ticketMachine", "name": "Hloub\u011bt\u00edn", "address": "Stanice metra, Praha 9", "openingHours": [{"from": 0, "to": 6, "hours": "5:00-24:00"}], "lat": 50.1064262, "lon": 14.5376272, "services": 196864, "payMethods": 13}, {"id": "dp2621", "type": "ticketMachine", "name": "Rajsk\u00e1 zahrada", "address": "Stanice metra, Praha 9", "openingHours": [{"from": 0, "to": 6, "hours": "5:00-24:00"}], "lat": 50.1067467, "lon": 14.5597715, "services": 196864, "payMethods": 13}, {"id": "dp2631", "type": "ticketMachine", "name": "\u010cern\u00fd Most", "address": "Stanice metra, Praha 9", "openingHours": [{"from": 0, "to": 6, "hours": "5:00-24:00"}], "lat": 50.10914, "lon": 14.5770569, "services": 196864, "payMethods": 13}, {"id": "dp2633", "type": "ticketMachine", "name": "\u010cern\u00fd Most", "address": "Stanice metra, Praha 9", "openingHours": [{"from": 0, "to": 6, "hours": "5:00-24:00"}], "lat": 50.10917, "lon": 14.5774994, "services": 196864, "payMethods": 13}, {"id": "dp2637", "type": "ticketMachine", "name": "\u010cern\u00fd Most BUS", "address": "Stanice metra, Praha 9", "openingHours": [{"from": 0, "to": 6, "hours": "5:00-24:00"}], "lat": 50.1087761, "lon": 14.5769558, "services": 196864, "payMethods": 13}, {"id": "dp2712", "type": "ticketMachine", "name": "H\u00e1je", "address": "v\u00fdchodn\u00ed vestibul, Stanice metra, Praha 4", "openingHours": [{"from": 0, "to": 6, "hours": "5:00-24:00"}], "lat": 50.0310822, "lon": 14.5285587, "services": 196864, "payMethods": 13}, {"id": "dp2721", "type": "ticketMachine", "name": "H\u00e1je", "address": "z\u00e1padn\u00ed vestibul, Stanice metra, Praha 4", "openingHours": [{"from": 0, "to": 6, "hours": "5:00-24:00"}], "lat": 50.0304947, "lon": 14.526145, "services": 196864, "payMethods": 13}, {"id": "dp2731", "type": "ticketMachine", "name": "Opatov", "address": "Stanice metra, Praha 4", "openingHours": [{"from": 0, "to": 6, "hours": "5:00-24:00"}], "lat": 50.0277061, "lon": 14.50837, "services": 196864, "payMethods": 13}, {"id": "dp2733", "type": "ticketMachine", "name": "Opatov", "address": "Chilsk\u00e1, Opatov, Praha 4", "openingHours": [{"from": 0, "to": 6, "hours": "0:00-24:00"}], "lat": 50.0275154, "lon": 14.5077038, "services": 196864, "payMethods": 13}, {"id": "dp2741", "type": "ticketMachine", "name": "Chodov", "address": "Stanice metra, Praha 4", "openingHours": [{"from": 0, "to": 6, "hours": "5:00-24:00"}], "lat": 50.0311928, "lon": 14.4916677, "services": 196864, "payMethods": 13}, {"id": "dp2751", "type": "ticketMachine", "name": "Roztyly", "address": "Stanice metra, Praha 4", "openingHours": [{"from": 0, "to": 6, "hours": "5:00-24:00"}], "lat": 50.0373955, "lon": 14.4778147, "services": 196864, "payMethods": 13}, {"id": "dp2761", "type": "ticketMachine", "name": "Ka\u010derov", "address": "Stanice metra, Praha 4", "openingHours": [{"from": 0, "to": 6, "hours": "5:00-24:00"}], "lat": 50.04182, "lon": 14.4602966, "services": 196864, "payMethods": 13}, {"id": "dp2841", "type": "ticketMachine", "name": "Bud\u011bjovick\u00e1", "address": "vestibul Antala Sta\u0161ka, Stanice metra, Praha 4", "openingHours": [{"from": 0, "to": 6, "hours": "5:00-24:00"}], "lat": 50.0435677, "lon": 14.4506416, "services": 196864, "payMethods": 13}, {"id": "dp2781", "type": "ticketMachine", "name": "Bud\u011bjovick\u00e1", "address": "vestibul Olbrachtova, Stanice metra, Praha 4", "openingHours": [{"from": 0, "to": 6, "hours": "5:00-24:00"}], "lat": 50.04477, "lon": 14.4483929, "services": 196864, "payMethods": 13}, {"id": "dp2801", "type": "ticketMachine", "name": "Pra\u017esk\u00e9ho povst\u00e1n\u00ed", "address": "Stanice metra, Praha 4", "openingHours": [{"from": 0, "to": 6, "hours": "5:00-24:00"}], "lat": 50.05653, "lon": 14.4338408, "services": 196864, "payMethods": 13}, {"id": "dp2811", "type": "ticketMachine", "name": "Vy\u0161ehrad", "address": "z centra, Stanice metra, Praha 4", "openingHours": [{"from": 0, "to": 6, "hours": "5:00-24:00"}], "lat": 50.0630341, "lon": 14.4305048, "services": 196864, "payMethods": 13}, {"id": "dp2813", "type": "ticketMachine", "name": "Vy\u0161ehrad", "address": "do centra, Stanice metra, Praha 4", "openingHours": [{"from": 0, "to": 6, "hours": "5:00-24:00"}], "lat": 50.0630341, "lon": 14.4305048, "services": 196864, "payMethods": 13}, {"id": "dp2821", "type": "ticketMachine", "name": "I.P. Pavlova", "address": "Stanice metra, Praha 2", "openingHours": [{"from": 0, "to": 6, "hours": "5:00-24:00"}], "lat": 50.0755577, "lon": 14.4304781, "services": 196864, "payMethods": 13}, {"id": "dp2825", "type": "ticketMachine", "name": "I.P. Pavlova", "address": "v\u00fdtah, Legerova, Stanice metra, Praha 2", "openingHours": [{"from": 0, "to": 6, "hours": "5:00-24:00"}], "lat": 50.0755577, "lon": 14.4304781, "services": 196864, "payMethods": 13}, {"id": "dp2833", "type": "ticketMachine", "name": "Hlavn\u00ed n\u00e1dra\u017e\u00ed", "address": "Stanice metra, Praha 1", "openingHours": [{"from": 0, "to": 6, "hours": "0:00-24:00"}], "lat": 50.0832024, "lon": 14.4340982, "services": 196864, "payMethods": 13}, {"id": "dp2807", "type": "ticketMachine", "name": "Hlavn\u00ed n\u00e1dra\u017e\u00ed", "address": "Stanice metra, Praha 1", "openingHours": [{"from": 0, "to": 6, "hours": "0:00-24:00"}], "lat": 50.0832558, "lon": 14.4338379, "services": 196864, "payMethods": 13}, {"id": "dp2805", "type": "ticketMachine", "name": "Hlavn\u00ed n\u00e1dra\u017e\u00ed", "address": "Stanice metra, Praha 1", "openingHours": [{"from": 0, "to": 6, "hours": "0:00-24:00"}], "lat": 50.0837669, "lon": 14.434495, "services": 196864, "payMethods": 13}, {"id": "dp2831", "type": "ticketMachine", "name": "Hlavn\u00ed n\u00e1dra\u017e\u00ed", "address": "Stanice metra, Praha 1", "openingHours": [{"from": 0, "to": 6, "hours": "0:00-24:00"}], "lat": 50.08384, "lon": 14.4342566, "services": 196864, "payMethods": 13}, {"id": "dp2843", "type": "ticketMachine", "name": "Florenc", "address": "vestibul K\u0159i\u017e\u00edkova C, Stanice metra, Praha 8", "openingHours": [{"from": 0, "to": 6, "hours": "5:00-24:00"}], "lat": 50.0896645, "lon": 14.4386, "services": 196864, "payMethods": 13}, {"id": "dp2844", "type": "ticketMachine", "name": "Florenc", "address": "vestibul K\u0159i\u017e\u00edkova C, Stanice metra, Praha 9", "openingHours": [{"from": 0, "to": 6, "hours": "5:00-24:00"}], "lat": 50.106514, "lon": 14.4928751, "services": 196864, "payMethods": 13}, {"id": "dp2846", "type": "ticketMachine", "name": "Florenc", "address": "vestibul Sokolovsk\u00e1 C, Stanice metra, Praha 8", "openingHours": [{"from": 0, "to": 6, "hours": "5:00-24:00"}], "lat": 50.0910721, "lon": 14.4396763, "services": 196864, "payMethods": 13}, {"id": "dp2848", "type": "ticketMachine", "name": "Florenc", "address": "vestibul Sokolovsk\u00e1 B, Stanice metra, Praha 8", "openingHours": [{"from": 0, "to": 6, "hours": "5:00-24:00"}], "lat": 50.0910721, "lon": 14.4396763, "services": 196864, "payMethods": 13}, {"id": "dp2859", "type": "ticketMachine", "name": "Florenc v\u00fdtah", "address": "v\u00fdtah, Florenc B, Stanice metra, Praha 8", "openingHours": [{"from": 0, "to": 6, "hours": "5:00-24:00"}], "lat": 50.0896645, "lon": 14.4386, "services": 196864, "payMethods": 13}, {"id": "dp2851", "type": "ticketMachine", "name": "Vltavsk\u00e1", "address": "Stanice metra, Praha 7", "openingHours": [{"from": 0, "to": 6, "hours": "5:00-24:00"}], "lat": 50.0990067, "lon": 14.43866, "services": 196864, "payMethods": 13}, {"id": "dp2861", "type": "ticketMachine", "name": "N\u00e1dra\u017e\u00ed Hole\u0161ovice", "address": "ji\u017en\u00ed vestibul bus, Stanice metra, Praha 7", "openingHours": [{"from": 0, "to": 6, "hours": "5:00-24:00"}], "lat": 50.1083069, "lon": 14.4407787, "services": 196864, "payMethods": 13}, {"id": "dp2871", "type": "ticketMachine", "name": "N\u00e1dra\u017e\u00ed Hole\u0161ovice", "address": "severn\u00ed vestibul n\u00e1dra\u017e\u00ed, Stanice metra, Praha 7", "openingHours": [{"from": 0, "to": 6, "hours": "5:00-24:00"}], "lat": 50.10965, "lon": 14.4397316, "services": 196864, "payMethods": 13}, {"id": "dp2881", "type": "ticketMachine", "name": "Kobylisy", "address": "Kobylisk\u00e9 n\u00e1m\u011bst\u00ed, Stanice metra, Praha 8", "openingHours": [{"from": 0, "to": 6, "hours": "5:00-24:00"}], "lat": 50.1246033, "lon": 14.4560614, "services": 196864, "payMethods": 13}, {"id": "dp2884", "type": "ticketMachine", "name": "Kobylisy", "address": "Katastr\u00e1ln\u00ed \u00fa\u0159ad, Stanice metra, Praha 8", "openingHours": [{"from": 0, "to": 6, "hours": "5:00-24:00"}], "lat": 50.1246033, "lon": 14.4560614, "services": 196864, "payMethods": 13}, {"id": "dp2887", "type": "ticketMachine", "name": "Kobylisy", "address": "v\u00fdtah, Stanice metra (v\u00fdtah), Praha 8", "openingHours": [{"from": 0, "to": 6, "hours": "5:00-24:00"}], "lat": 50.1244774, "lon": 14.4553881, "services": 196864, "payMethods": 13}, {"id": "dp2891", "type": "ticketMachine", "name": "L\u00e1dv\u00ed", "address": "Stanice metra, Praha 8", "openingHours": [{"from": 0, "to": 6, "hours": "5:00-24:00"}], "lat": 50.1266747, "lon": 14.4701548, "services": 196864, "payMethods": 13}, {"id": "dp2679", "type": "ticketMachine", "name": "St\u0159\u00ed\u017ekov", "address": "Stanice metra, Praha 9", "openingHours": [{"from": 0, "to": 6, "hours": "5:00-24:00"}], "lat": 50.1259956, "lon": 14.48945, "services": 196864, "payMethods": 13}, {"id": "dp2680", "type": "ticketMachine", "name": "St\u0159\u00ed\u017ekov", "address": "Stanice metra, Praha 9", "openingHours": [{"from": 0, "to": 6, "hours": "5:00-24:00"}], "lat": 50.1262054, "lon": 14.4894886, "services": 196864, "payMethods": 13}, {"id": "dp2682", "type": "ticketMachine", "name": "St\u0159\u00ed\u017ekov", "address": "Stanice metra, Praha 9", "openingHours": [{"from": 0, "to": 6, "hours": "5:00-24:00"}], "lat": 50.1264153, "lon": 14.48914, "services": 196864, "payMethods": 13}, {"id": "dp2684", "type": "ticketMachine", "name": "St\u0159\u00ed\u017ekov", "address": "Stanice metra, Praha 9", "openingHours": [{"from": 0, "to": 6, "hours": "5:00-24:00"}], "lat": 50.1258659, "lon": 14.4898367, "services": 196864, "payMethods": 13}, {"id": "dp2686", "type": "ticketMachine", "name": "St\u0159\u00ed\u017ekov", "address": "Stanice metra, Praha 9", "openingHours": [{"from": 0, "to": 6, "hours": "5:00-24:00"}], "lat": 50.1265869, "lon": 14.4890862, "services": 196864, "payMethods": 13}, {"id": "dp2688", "type": "ticketMachine", "name": "St\u0159\u00ed\u017ekov", "address": "Stanice metra, Praha 9", "openingHours": [{"from": 0, "to": 6, "hours": "5:00-24:00"}], "lat": 50.1260376, "lon": 14.4898586, "services": 196864, "payMethods": 13}, {"id": "dp2690", "type": "ticketMachine", "name": "St\u0159\u00ed\u017ekov", "address": "Stanice metra, Praha 9", "openingHours": [{"from": 0, "to": 6, "hours": "5:00-24:00"}], "lat": 50.1263466, "lon": 14.4894829, "services": 196864, "payMethods": 13}, {"id": "dp2691", "type": "ticketMachine", "name": "Prosek", "address": "Stanice metra, Praha 9", "openingHours": [{"from": 0, "to": 6, "hours": "5:00-24:00"}], "lat": 50.118866, "lon": 14.4993668, "services": 196864, "payMethods": 13}, {"id": "dp2701", "type": "ticketMachine", "name": "Let\u0148any", "address": "Stanice metra, Praha 9", "openingHours": [{"from": 0, "to": 6, "hours": "5:00-24:00"}], "lat": 50.1249428, "lon": 14.5161362, "services": 196864, "payMethods": 13}, {"id": "cd551069", "type": "trainStation", "name": "Bene\u0161ov u Prahy", "address": "", "openingHours": [{"from": 0, "to": 5, "hours": "05:35-21:35"}, {"from": 6, "to": 6, "hours": "06:05-21:35"}], "lat": 49.77969, "lon": 14.6827059, "services": 1253376, "payMethods": 15, "link": "https://www.cd.cz/stanice/5455106"}, {"id": "cd730747", "type": "trainStation", "name": "Beroun", "address": "", "openingHours": [{"from": 0, "to": 6, "hours": "00:00-00:35,03:35-24:00 (L\u00edta\u010dka 08:00-17:00)"}], "lat": 49.9569778, "lon": 14.0758247, "services": 1253696, "payMethods": 15, "link": "https://www.cd.cz/stanice/5473074"}, {"id": "cd747220", "type": "trainStation", "name": "Blatn\u00e1", "address": "", "openingHours": [{"from": 0, "to": 4, "hours": "05:00-10:05,10:35-12:10,12:40-17:15"}], "lat": 49.431, "lon": 13.8726835, "services": 1253376, "payMethods": 15, "link": "https://www.cd.cz/stanice/5474722"}, {"id": "cd546465", "type": "trainStation", "name": "Brand\u00fds nad Labem", "address": "", "openingHours": [{"from": 0, "to": 4, "hours": "06:30-11:15,11:45-14:30"}], "lat": 50.1834869, "lon": 14.6552191, "services": 1253376, "payMethods": 15, "link": "https://www.cd.cz/stanice/5454646"}, {"id": "cd540443", "type": "trainStation", "name": "\u010c\u00e1slav", "address": "", "openingHours": [{"from": 0, "to": 3, "hours": "05:25-09:15,09:45-17:15 (L\u00edta\u010dka 08:00-17:00)"}, {"from": 4, "to": 4, "hours": "05:35-09:15,09:45-17:15 (L\u00edta\u010dka 08:00-17:00)"}, {"from": 5, "to": 5, "hours": "05:40-09:15,09:45-15:00 (L\u00edta\u010dka 08:00-15:00)"}, {"from": 6, "to": 6, "hours": "07:15-09:15,09:45-17:35 (L\u00edta\u010dka 08:00-17:00)"}], "lat": 49.9155846, "lon": 15.3943119, "services": 1253696, "payMethods": 15, "link": "https://www.cd.cz/stanice/5454044"}, {"id": "cd547760", "type": "trainStation", "name": "\u010cel\u00e1kovice", "address": "", "openingHours": [{"from": 0, "to": 4, "hours": "05:10-10:35,11:05-16:40"}, {"from": 5, "to": 6, "hours": "06:40-10:35,11:05-17:10"}], "lat": 50.15785, "lon": 14.7543659, "services": 1253376, "payMethods": 15, "link": "https://www.cd.cz/stanice/5454776"}, {"id": "cd550467", "type": "trainStation", "name": "\u010cer\u010dany", "address": "", "openingHours": [{"from": 0, "to": 4, "hours": "05:55-12:20,12:50-17:50"}, {"from": 5, "to": 5, "hours": "05:55-11:45,12:30-17:50"}, {"from": 6, "to": 6, "hours": "06:50-11:45,12:30-17:55"}], "lat": 49.85143, "lon": 14.70194, "services": 1253376, "payMethods": 15, "link": "https://www.cd.cz/stanice/5455046"}, {"id": "cd532663", "type": "trainStation", "name": "\u010cerno\u0161ice", "address": "", "openingHours": [{"from": 0, "to": 4, "hours": "05:32-16:55"}, {"from": 5, "to": 5, "hours": "06:32-17:45"}, {"from": 6, "to": 6, "hours": "07:32-17:46"}], "lat": 49.95981, "lon": 14.3235159, "services": 1253376, "payMethods": 15, "link": "https://www.cd.cz/stanice/5453266"}, {"id": "cd530667", "type": "trainStation", "name": "\u010cesk\u00fd Brod", "address": "", "openingHours": [{"from": 0, "to": 4, "hours": "05:05-09:20,09:50-16:45 (L\u00edta\u010dka 08:00-16:45)"}, {"from": 5, "to": 5, "hours": "07:00-10:50,11:20-17:10 (L\u00edta\u010dka 08:00-17:00)"}, {"from": 6, "to": 6, "hours": "07:55-11:50,12:20-17:55 (L\u00edta\u010dka 08:00-17:00)"}], "lat": 50.0766678, "lon": 14.8663044, "services": 1253696, "payMethods": 15, "link": "https://www.cd.cz/stanice/5453066"}, {"id": "cd532267", "type": "trainStation", "name": "Dob\u0159ichovice", "address": "", "openingHours": [{"from": 0, "to": 4, "hours": "06:28-14:18"}], "lat": 49.92745, "lon": 14.2879248, "services": 1253376, "payMethods": 15, "link": "https://www.cd.cz/stanice/5453226"}, {"id": "cd540930", "type": "trainStation", "name": "Gol\u010d\u016fv Jen\u00edkov m\u011bsto", "address": "", "openingHours": [{"from": 0, "to": 4, "hours": "05:25-10:40,11:10-16:50"}, {"from": 5, "to": 5, "hours": "06:25-11:30,12:00-15:50"}, {"from": 6, "to": 6, "hours": "08:25-11:30,12:00-19:50"}], "lat": 49.8218765, "lon": 15.4735765, "services": 1253376, "payMethods": 15, "link": "https://www.cd.cz/stanice/5454093"}, {"id": "cd542878", "type": "trainStation", "name": "Hn\u011bvice", "address": "", "openingHours": [{"from": 0, "to": 4, "hours": "05:40-09:40,10:00-10:55,11:25-16:40"}, {"from": 5, "to": 6, "hours": "06:10-09:40,10:00-10:55,11:25-16:40"}], "lat": 50.4530449, "lon": 14.361433, "services": 1253376, "payMethods": 15, "link": "https://www.cd.cz/stanice/5454287"}, {"id": "cd731851", "type": "trainStation", "name": "Holoubkov", "address": "", "openingHours": [{"from": 0, "to": 4, "hours": "05:40-19:10"}, {"from": 5, "to": 6, "hours": "06:40-19:10"}], "lat": 49.7740021, "lon": 13.7000408, "services": 1253376, "payMethods": 15, "link": "https://www.cd.cz/stanice/5473185"}, {"id": "cd731349", "type": "trainStation", "name": "Ho\u0159ovice", "address": "", "openingHours": [{"from": 0, "to": 4, "hours": "04:25-20:10"}, {"from": 5, "to": 6, "hours": "05:00-20:10"}], "lat": 49.8433876, "lon": 13.8993168, "services": 1253376, "payMethods": 15, "link": "https://www.cd.cz/stanice/5473134"}, {"id": "cd536565", "type": "trainStation", "name": "Hostivice", "address": "", "openingHours": [{"from": 0, "to": 4, "hours": "06:00-11:30,12:00-13:50"}], "lat": 50.0841331, "lon": 14.2584476, "services": 1253376, "payMethods": 15, "link": "https://www.cd.cz/stanice/5453656"}, {"id": "cd530501", "type": "trainStation", "name": "Chlumec nad Cidlinou", "address": "", "openingHours": [{"from": 0, "to": 4, "hours": "05:15-10:45,11:15-12:40,13:10-17:45"}, {"from": 5, "to": 5, "hours": "07:15-10:45,11:15-12:40,13:10-18:35"}, {"from": 6, "to": 6, "hours": "08:15-12:40,13:10-15:40,16:10-19:35"}], "lat": 50.1635666, "lon": 15.457283, "services": 1253376, "payMethods": 15, "link": "https://www.cd.cz/stanice/5453050"}, {"id": "cd535039", "type": "trainStation", "name": "Chvaletice", "address": "", "openingHours": [{"from": 0, "to": 4, "hours": "05:00-08:10,09:45-12:10,12:40-16:10"}, {"from": 5, "to": 5, "hours": "05:50-08:10,09:45-12:10,12:40-16:10"}, {"from": 6, "to": 6, "hours": "07:40-10:10,11:45-14:15,14:45-18:10"}], "lat": 50.0374565, "lon": 15.4186287, "services": 1253376, "payMethods": 15, "link": "https://www.cd.cz/stanice/5453503"}, {"id": "cd554204", "type": "trainStation", "name": "Ji\u010d\u00edn", "address": "", "openingHours": [{"from": 0, "to": 4, "hours": "05:10-10:45,11:15-14:45,15:15-17:50"}, {"from": 5, "to": 6, "hours": "07:25-12:45,13:15-17:50"}], "lat": 50.4306755, "lon": 15.3613186, "services": 1253376, "payMethods": 15, "link": "https://www.cd.cz/stanice/5455420"}, {"id": "cd531863", "type": "trainStation", "name": "Karl\u0161tejn", "address": "", "openingHours": [{"from": 0, "to": 4, "hours": "06:45-17:45"}, {"from": 5, "to": 6, "hours": "07:45-19:45"}], "lat": 49.93195, "lon": 14.1753321, "services": 1253376, "payMethods": 15, "link": "https://www.cd.cz/stanice/5453186"}, {"id": "cd534149", "type": "trainStation", "name": "Kol\u00edn", "address": "", "openingHours": [{"from": 0, "to": 4, "hours": "00:00-00:55,03:20-24:00 (L\u00edta\u010dka 08:00-17:00)"}, {"from": 5, "to": 5, "hours": "00:00-00:55,03:40-24:00 (L\u00edta\u010dka 08:00-17:00)"}, {"from": 6, "to": 6, "hours": "00:00-01:00,03:40-24:00 (L\u00edta\u010dka 08:00-17:00)"}], "lat": 50.02524, "lon": 15.2143831, "services": 1253696, "payMethods": 15, "link": "https://www.cd.cz/stanice/5453414"}, {"id": "cd534248", "type": "trainStation", "name": "Kol\u00edn zast\u00e1vka", "address": "", "openingHours": [{"from": 0, "to": 4, "hours": "05:55-13:25"}], "lat": 50.0305557, "lon": 15.1955481, "services": 1253376, "payMethods": 15, "link": "https://www.cd.cz/stanice/5453424"}, {"id": "cd543967", "type": "trainStation", "name": "Kralupy nad Vltavou", "address": "", "openingHours": [{"from": 0, "to": 6, "hours": "05:25-20:25"}], "lat": 50.2382, "lon": 14.3138552, "services": 1253376, "payMethods": 15, "link": "https://www.cd.cz/stanice/5454396"}, {"id": "cd540146", "type": "trainStation", "name": "Kutn\u00e1 Hora hlavn\u00ed n\u00e1dra\u017e\u00ed", "address": "", "openingHours": [{"from": 0, "to": 4, "hours": "05:50-09:05,09:35-17:30"}, {"from": 5, "to": 5, "hours": "06:45-09:05,09:35-16:45"}, {"from": 6, "to": 6, "hours": "08:45-09:05,09:35-18:45"}], "lat": 49.96172, "lon": 15.3011465, "services": 1253376, "payMethods": 15, "link": "https://www.cd.cz/stanice/5454014"}, {"id": "cd563460", "type": "trainStation", "name": "Kutn\u00e1 Hora m\u011bsto", "address": "", "openingHours": [{"from": 0, "to": 4, "hours": "05:35-09:40,10:10-10:50,11:50-17:15"}, {"from": 5, "to": 5, "hours": "06:35-11:45,12:15-16:55"}, {"from": 6, "to": 6, "hours": "09:00-11:45,12:15-18:50"}], "lat": 49.9498825, "lon": 15.2773333, "services": 1253376, "payMethods": 15, "link": "https://www.cd.cz/stanice/5456346"}, {"id": "cd561951", "type": "trainStation", "name": "Lede\u010d nad S\u00e1zavou", "address": "", "openingHours": [{"from": 0, "to": 4, "hours": "05:35-10:45,11:15-13:15"}], "lat": 49.6979179, "lon": 15.2704182, "services": 1253376, "payMethods": 15, "link": "https://www.cd.cz/stanice/5456195"}, {"id": "cd531145", "type": "trainStation", "name": "Lys\u00e1 nad Labem", "address": "", "openingHours": [{"from": 0, "to": 4, "hours": "05:05-21:20 (L\u00edta\u010dka 08:00-17:00)"}, {"from": 5, "to": 5, "hours": "06:10-18:50 (L\u00edta\u010dka 08:00-17:00)"}, {"from": 6, "to": 6, "hours": "06:40-21:15 (L\u00edta\u010dka 08:00-17:00)"}], "lat": 50.1956, "lon": 14.8422327, "services": 1253696, "payMethods": 15, "link": "https://www.cd.cz/stanice/5453114"}, {"id": "cd530188", "type": "trainStation", "name": "M\u011bln\u00edk", "address": "", "openingHours": [{"from": 0, "to": 4, "hours": "04:55-10:15,11:00-17:10 (L\u00edta\u010dka 08:00-17:00)"}, {"from": 5, "to": 5, "hours": "06:45-10:15,10:45-15:10 (L\u00edta\u010dka 08:00-15:00)"}, {"from": 6, "to": 6, "hours": "08:45-12:15,12:45-17:10 (L\u00edta\u010dka 09:00-17:00)"}], "lat": 50.3529778, "lon": 14.4924278, "services": 1253696, "payMethods": 15, "link": "https://www.cd.cz/stanice/5453018"}, {"id": "cd544148", "type": "trainStation", "name": "Milovice", "address": "", "openingHours": [{"from": 0, "to": 4, "hours": "04:30-08:10,08:30-11:20,11:40-16:20"}, {"from": 5, "to": 5, "hours": "05:40-15:25"}, {"from": 6, "to": 6, "hours": "07:40-17:25"}], "lat": 50.2292023, "lon": 14.8816891, "services": 1253376, "payMethods": 15, "link": "https://www.cd.cz/stanice/5454414"}, {"id": "cd544510", "type": "trainStation", "name": "Mlad\u00e1 Boleslav hlavn\u00ed n\u00e1dra\u017e\u00ed", "address": "", "openingHours": [{"from": 0, "to": 4, "hours": "05:10-16:45"}, {"from": 5, "to": 5, "hours": "06:05-11:00,11:30-16:00"}, {"from": 6, "to": 6, "hours": "07:35-11:00,11:30-17:45"}], "lat": 50.40734, "lon": 14.8872032, "services": 1253376, "payMethods": 15, "link": "https://www.cd.cz/stanice/5454451"}, {"id": "cd559914", "type": "trainStation", "name": "Mlad\u00e1 Boleslav m\u011bsto", "address": "", "openingHours": [{"from": 0, "to": 4, "hours": "06:00-10:30,11:00-11:45,12:10-17:35"}, {"from": 5, "to": 5, "hours": "06:00-09:35,09:55-12:30,12:55-15:35"}, {"from": 6, "to": 6, "hours": "07:00-09:35,09:55-12:30,12:55-17:35"}], "lat": 50.4188156, "lon": 14.9175615, "services": 1253376, "payMethods": 15, "link": "https://www.cd.cz/stanice/5455991"}, {"id": "cd550160", "type": "trainStation", "name": "Mnichovice", "address": "", "openingHours": [{"from": 0, "to": 4, "hours": "05:05-16:30"}, {"from": 5, "to": 5, "hours": "06:05-17:30"}, {"from": 6, "to": 6, "hours": "07:40-18:00"}], "lat": 49.9325829, "lon": 14.7071524, "services": 1253376, "payMethods": 15, "link": "https://www.cd.cz/stanice/5455016"}, {"id": "cd546861", "type": "trainStation", "name": "Neratovice", "address": "", "openingHours": [{"from": 0, "to": 4, "hours": "05:15-10:40,11:10-17:00"}, {"from": 5, "to": 6, "hours": "06:20-10:40,11:10-16:20"}], "lat": 50.2627029, "lon": 14.5175734, "services": 1253376, "payMethods": 15, "link": "https://www.cd.cz/stanice/5454686"}, {"id": "cd532143", "type": "trainStation", "name": "Nymburk hlavn\u00ed n\u00e1dra\u017e\u00ed", "address": "", "openingHours": [{"from": 0, "to": 4, "hours": "04:50-21:30 (L\u00edta\u010dka 08:00-17:00)"}, {"from": 5, "to": 5, "hours": "06:50-19:25 (L\u00edta\u010dka 08:00-17:00)"}, {"from": 6, "to": 6, "hours": "07:20-20:25 (L\u00edta\u010dka 08:00-17:00)"}], "lat": 50.1934128, "lon": 15.0459776, "services": 1253696, "payMethods": 15, "link": "https://www.cd.cz/stanice/5453214"}, {"id": "cd551366", "type": "trainStation", "name": "Olbramovice", "address": "", "openingHours": [{"from": 0, "to": 4, "hours": "05:05-09:40,10:10-13:40,14:05-17:20"}, {"from": 5, "to": 5, "hours": "06:00-09:40,10:10-16:00"}, {"from": 6, "to": 6, "hours": "10:30-19:00"}], "lat": 49.666748, "lon": 14.6240473, "services": 1253376, "payMethods": 15, "link": "https://www.cd.cz/stanice/5455136"}, {"id": "cd531160", "type": "trainStation", "name": "Pe\u010dky", "address": "", "openingHours": [{"from": 0, "to": 4, "hours": "05:00-09:55,10:25-13:45,14:15-16:40"}, {"from": 5, "to": 5, "hours": "06:00-10:10,10:40-16:00"}, {"from": 6, "to": 6, "hours": "07:45-10:10,10:40-17:55"}], "lat": 50.0898, "lon": 15.0271006, "services": 1253376, "payMethods": 15, "link": "https://www.cd.cz/stanice/5453116"}, {"id": "cd532341", "type": "trainStation", "name": "Pod\u011bbrady", "address": "", "openingHours": [{"from": 0, "to": 4, "hours": "04:40-21:20"}, {"from": 5, "to": 5, "hours": "06:35-19:35"}, {"from": 6, "to": 6, "hours": "06:55-19:35"}], "lat": 50.1495743, "lon": 15.1238556, "services": 1253376, "payMethods": 15, "link": "https://www.cd.cz/stanice/5453234"}, {"id": "cd570762", "type": "trainStation", "name": "Praha hlavn\u00ed n\u00e1dra\u017e\u00ed", "address": "", "openingHours": [{"from": 0, "to": 6, "hours": "00:00-00:40,02:40-24:00"}], "lat": 50.0826378, "lon": 14.4354706, "services": 1253376, "payMethods": 15, "link": "https://www.cd.cz/stanice/5457076"}, {"id": "cd572362", "type": "trainStation", "name": "Praha Masarykovo n\u00e1dra\u017e\u00ed", "address": "", "openingHours": [{"from": 0, "to": 6, "hours": "06:05-21:50"}], "lat": 50.08765, "lon": 14.4347076, "services": 1253376, "payMethods": 15, "link": "https://www.cd.cz/stanice/5457236"}, {"id": "cd570663", "type": "trainStation", "name": "Praha-Dejvice", "address": "", "openingHours": [{"from": 0, "to": 6, "hours": "06:50-17:45"}], "lat": 50.0968742, "lon": 14.3995028, "services": 1253376, "payMethods": 15, "link": "https://www.cd.cz/stanice/5457066"}, {"id": "cd572560", "type": "trainStation", "name": "Praha-Hole\u0161ovice", "address": "", "openingHours": [{"from": 0, "to": 4, "hours": "06:25-17:55"}, {"from": 5, "to": 5, "hours": "06:55-17:35"}, {"from": 6, "to": 6, "hours": "07:20-17:40"}], "lat": 50.1106377, "lon": 14.4397068, "services": 1253376, "payMethods": 15, "link": "https://www.cd.cz/stanice/5457256"}, {"id": "cd548263", "type": "trainStation", "name": "Praha-Horn\u00ed Po\u010dernice", "address": "", "openingHours": [{"from": 0, "to": 6, "hours": "06:55-17:55"}], "lat": 50.1163025, "lon": 14.61077, "services": 1253376, "payMethods": 15, "link": "https://www.cd.cz/stanice/5454826"}, {"id": "cd570960", "type": "trainStation", "name": "Praha-Hostiva\u0159", "address": "", "openingHours": [{"from": 0, "to": 4, "hours": "07:25-15:15"}], "lat": 50.05511, "lon": 14.5358162, "services": 1253376, "payMethods": 15, "link": "https://www.cd.cz/stanice/5457096"}, {"id": "cd530568", "type": "trainStation", "name": "Praha-Kl\u00e1novice", "address": "", "openingHours": [{"from": 0, "to": 4, "hours": "05:50-11:30,12:00-17:15"}, {"from": 5, "to": 5, "hours": "06:50-11:30,12:15-17:15"}, {"from": 6, "to": 6, "hours": "07:50-11:30,12:15-17:35"}], "lat": 50.0871277, "lon": 14.6638184, "services": 1253376, "payMethods": 15, "link": "https://www.cd.cz/stanice/5453056"}, {"id": "cd571760", "type": "trainStation", "name": "Praha-Libe\u0148", "address": "", "openingHours": [{"from": 0, "to": 6, "hours": "05:50-19:00"}], "lat": 50.1008072, "lon": 14.5013914, "services": 1253376, "payMethods": 15, "link": "https://www.cd.cz/stanice/5457176"}, {"id": "cd532564", "type": "trainStation", "name": "Praha-Radot\u00edn", "address": "", "openingHours": [{"from": 0, "to": 4, "hours": "06:04-17:44"}, {"from": 5, "to": 5, "hours": "06:36-17:21"}, {"from": 6, "to": 6, "hours": "07:36-17:21"}], "lat": 49.98595, "lon": 14.3642416, "services": 1253376, "payMethods": 15, "link": "https://www.cd.cz/stanice/5453256"}, {"id": "cd572263", "type": "trainStation", "name": "Praha-Sm\u00edchov", "address": "", "openingHours": [{"from": 0, "to": 6, "hours": "06:00-22:15"}], "lat": 50.06111, "lon": 14.4080439, "services": 1253376, "payMethods": 15, "link": "https://www.cd.cz/stanice/5457226"}, {"id": "cd549568", "type": "trainStation", "name": "Praha-Uh\u0159\u00edn\u011bves", "address": "", "openingHours": [{"from": 0, "to": 6, "hours": "06:25-17:40"}], "lat": 50.0337868, "lon": 14.5912895, "services": 1253376, "payMethods": 15, "link": "https://www.cd.cz/stanice/5454956"}, {"id": "cd572669", "type": "trainStation", "name": "Praha-Veleslav\u00edn", "address": "", "openingHours": [{"from": 0, "to": 4, "hours": "07:05-11:00,11:30-19:20"}, {"from": 5, "to": 6, "hours": "08:05-11:00,11:30-16:50"}], "lat": 50.09503, "lon": 14.3462763, "services": 1253376, "payMethods": 15, "link": "https://www.cd.cz/stanice/5457266"}, {"id": "cd572768", "type": "trainStation", "name": "Praha-Vr\u0161ovice", "address": "", "openingHours": [{"from": 0, "to": 4, "hours": "06:25-17:40"}, {"from": 5, "to": 5, "hours": "06:25-18:00"}, {"from": 6, "to": 6, "hours": "07:25-18:45"}], "lat": 50.0646439, "lon": 14.4477367, "services": 1253376, "payMethods": 15, "link": "https://www.cd.cz/stanice/5457276"}, {"id": "cd573162", "type": "trainStation", "name": "Praha-Vyso\u010dany", "address": "", "openingHours": [{"from": 0, "to": 4, "hours": "07:10-18:25"}, {"from": 5, "to": 5, "hours": "07:10-18:15"}, {"from": 6, "to": 6, "hours": "07:10-18:20"}], "lat": 50.1122551, "lon": 14.4976006, "services": 1253376, "payMethods": 15, "link": "https://www.cd.cz/stanice/5457316"}, {"id": "cd572792", "type": "trainStation", "name": "Praha-Zahradn\u00ed M\u011bsto", "address": "", "openingHours": [{"from": 0, "to": 5, "hours": "06:15-10:20,10:50-17:40"}, {"from": 6, "to": 6, "hours": "07:40-10:20,10:50-17:40"}], "lat": 50.0622978, "lon": 14.5034075, "services": 1253376, "payMethods": 15, "link": "https://www.cd.cz/stanice/5457279"}, {"id": "cd535138", "type": "trainStation", "name": "P\u0159elou\u010d", "address": "", "openingHours": [{"from": 0, "to": 4, "hours": "04:25-21:10"}, {"from": 5, "to": 5, "hours": "04:55-15:05,15:35-21:25"}, {"from": 6, "to": 6, "hours": "04:55-21:10"}], "lat": 50.039814, "lon": 15.5739, "services": 1253376, "payMethods": 15, "link": "https://www.cd.cz/stanice/5453513"}, {"id": "cd769042", "type": "trainStation", "name": "P\u0159\u00edbram", "address": "", "openingHours": [{"from": 0, "to": 6, "hours": "06:00-11:05,11:35-17:10"}], "lat": 49.68893, "lon": 14.0032673, "services": 1253376, "payMethods": 15, "link": "https://www.cd.cz/stanice/5476904"}, {"id": "cd760942", "type": "trainStation", "name": "Rakovn\u00edk", "address": "", "openingHours": [{"from": 0, "to": 6, "hours": "04:55-19:30"}], "lat": 50.0990067, "lon": 13.7360373, "services": 1253376, "payMethods": 15, "link": "https://www.cd.cz/stanice/5476094"}, {"id": "cd732057", "type": "trainStation", "name": "Rokycany", "address": "", "openingHours": [{"from": 0, "to": 4, "hours": "06:15-15:35"}, {"from": 5, "to": 5, "hours": "06:15-13:35"}, {"from": 6, "to": 6, "hours": "10:15-17:35"}], "lat": 49.7400055, "lon": 13.5924511, "services": 1253376, "payMethods": 15, "link": "https://www.cd.cz/stanice/5473205"}, {"id": "cd542571", "type": "trainStation", "name": "Roudnice nad Labem", "address": "", "openingHours": [{"from": 0, "to": 4, "hours": "04:55-21:30"}, {"from": 5, "to": 6, "hours": "05:55-21:30"}], "lat": 50.4264832, "lon": 14.2643356, "services": 1253376, "payMethods": 15, "link": "https://www.cd.cz/stanice/5454257"}, {"id": "cd544668", "type": "trainStation", "name": "Roztoky u Prahy", "address": "", "openingHours": [{"from": 0, "to": 4, "hours": "05:45-10:20,10:50-13:35"}], "lat": 50.15959, "lon": 14.398406, "services": 1253376, "payMethods": 15, "link": "https://www.cd.cz/stanice/5454466"}, {"id": "cd534834", "type": "trainStation", "name": "\u0158e\u010dany nad Labem", "address": "", "openingHours": [{"from": 0, "to": 4, "hours": "05:00-11:00,11:30-16:15"}, {"from": 5, "to": 5, "hours": "07:45-10:45,11:30-16:15"}, {"from": 6, "to": 6, "hours": "11:45-14:15,14:45-18:55"}], "lat": 50.0317421, "lon": 15.4788122, "services": 1253376, "payMethods": 15, "link": "https://www.cd.cz/stanice/5453483"}, {"id": "cd532168", "type": "trainStation", "name": "\u0158evnice", "address": "", "openingHours": [{"from": 0, "to": 4, "hours": "05:53-17:21"}, {"from": 5, "to": 5, "hours": "07:21-18:04"}, {"from": 6, "to": 6, "hours": "07:52-18:04"}], "lat": 49.91646, "lon": 14.2388391, "services": 1253376, "payMethods": 15, "link": "https://www.cd.cz/stanice/5453216"}, {"id": "cd549865", "type": "trainStation", "name": "\u0158\u00ed\u010dany", "address": "", "openingHours": [{"from": 0, "to": 4, "hours": "05:00-21:00"}, {"from": 5, "to": 5, "hours": "05:00-20:00"}, {"from": 6, "to": 6, "hours": "07:00-20:00"}], "lat": 49.99718, "lon": 14.6642685, "services": 1253376, "payMethods": 15, "link": "https://www.cd.cz/stanice/5454986"}, {"id": "cd559666", "type": "trainStation", "name": "S\u00e1zava", "address": "", "openingHours": [{"from": 0, "to": 4, "hours": "05:25-07:40,08:00-10:30,11:00-12:30,13:00-17:10"}, {"from": 5, "to": 5, "hours": "07:10-12:30,13:00-14:00,14:30-18:15"}, {"from": 6, "to": 6, "hours": "07:40-12:30,13:00-14:00,14:30-18:15"}], "lat": 49.87518, "lon": 14.90624, "services": 1253376, "payMethods": 15, "link": "https://www.cd.cz/stanice/5455966"}, {"id": "cd551762", "type": "trainStation", "name": "Sedl\u010dany", "address": "", "openingHours": [{"from": 0, "to": 3, "hours": "06:10-09:10,09:40-11:15,12:25-15:45"}, {"from": 6, "to": 6, "hours": "10:00-11:30,12:30-15:30,16:05-18:30"}], "lat": 49.65587, "lon": 14.4343338, "services": 1253376, "payMethods": 15, "link": "https://www.cd.cz/stanice/5455176"}, {"id": "cd550269", "type": "trainStation", "name": "Senohraby", "address": "", "openingHours": [{"from": 0, "to": 4, "hours": "05:00-16:45"}, {"from": 5, "to": 5, "hours": "07:00-16:45"}, {"from": 6, "to": 6, "hours": "08:00-17:45"}], "lat": 49.89705, "lon": 14.7275257, "services": 1253376, "payMethods": 15, "link": "https://www.cd.cz/stanice/5455026"}, {"id": "cd538066", "type": "trainStation", "name": "Slan\u00fd", "address": "", "openingHours": [{"from": 0, "to": 4, "hours": "05:10-10:45,11:15-17:30"}, {"from": 5, "to": 6, "hours": "05:40-10:00,10:30-17:30"}], "lat": 50.22855, "lon": 14.0757, "services": 1253376, "payMethods": 15, "link": "https://www.cd.cz/stanice/5453806"}, {"id": "cd550061", "type": "trainStation", "name": "Stran\u010dice", "address": "", "openingHours": [{"from": 0, "to": 5, "hours": "06:10-17:25 (L\u00edta\u010dka 08:00-16:30)"}, {"from": 6, "to": 6, "hours": "06:40-17:25 (L\u00edta\u010dka 08:00-16:30)"}], "lat": 49.949482, "lon": 14.6777363, "services": 1253696, "payMethods": 15, "link": "https://www.cd.cz/stanice/5455006"}, {"id": "cd541334", "type": "trainStation", "name": "Sv\u011btl\u00e1 nad S\u00e1zavou", "address": "", "openingHours": [{"from": 0, "to": 4, "hours": "05:00-08:30,09:00-20:50"}, {"from": 5, "to": 5, "hours": "05:00-11:00,11:30-20:50"}, {"from": 6, "to": 6, "hours": "06:00-11:00,11:30-21:20"}], "lat": 49.67042, "lon": 15.4174356, "services": 1253376, "payMethods": 15, "link": "https://www.cd.cz/stanice/5454133"}, {"id": "cd530469", "type": "trainStation", "name": "\u00davaly", "address": "", "openingHours": [{"from": 0, "to": 4, "hours": "05:10-09:25,09:55-16:50"}, {"from": 5, "to": 5, "hours": "06:25-09:40,10:10-16:30"}, {"from": 6, "to": 6, "hours": "07:25-09:40,10:10-17:30"}], "lat": 50.07471, "lon": 14.7229156, "services": 1253376, "payMethods": 15, "link": "https://www.cd.cz/stanice/5453046"}, {"id": "cd533141", "type": "trainStation", "name": "Velk\u00fd Osek", "address": "", "openingHours": [{"from": 0, "to": 4, "hours": "05:35-09:45,10:25-13:45,14:05-17:10"}, {"from": 5, "to": 5, "hours": "06:00-09:40,10:10-15:25"}, {"from": 6, "to": 6, "hours": "05:50-09:40,10:10-13:40,14:10-17:25"}], "lat": 50.10191, "lon": 15.1934576, "services": 1253376, "payMethods": 15, "link": "https://www.cd.cz/stanice/5453314"}, {"id": "cd545665", "type": "trainStation", "name": "Velvary", "address": "", "openingHours": [{"from": 0, "to": 4, "hours": "06:00-11:15,11:45-13:50"}], "lat": 50.28222, "lon": 14.24329, "services": 1253376, "payMethods": 15, "link": "https://www.cd.cz/stanice/5454566"}, {"id": "cd553560", "type": "trainStation", "name": "Vla\u0161im", "address": "", "openingHours": [{"from": 0, "to": 4, "hours": "05:40-10:00,10:30-17:40 (L\u00edta\u010dka 08:00-16:00)"}, {"from": 5, "to": 5, "hours": "07:30-10:45,11:15-17:30 (L\u00edta\u010dka 08:00-16:00)"}, {"from": 6, "to": 6, "hours": "09:30-12:45,13:15-18:30 (L\u00edta\u010dka 09:40-17:40)"}], "lat": 49.7004738, "lon": 14.8975849, "services": 1253696, "payMethods": 15, "link": "https://www.cd.cz/stanice/5455356"}, {"id": "cd555466", "type": "trainStation", "name": "Vran\u00e9 nad Vltavou", "address": "", "openingHours": [{"from": 0, "to": 4, "hours": "05:20-11:40,12:10-17:02"}, {"from": 5, "to": 5, "hours": "06:50-12:40,13:10-16:35"}, {"from": 6, "to": 6, "hours": "07:50-12:40,13:10-18:05"}], "lat": 49.9385567, "lon": 14.3811207, "services": 1253376, "payMethods": 15, "link": "https://www.cd.cz/stanice/5455546"}, {"id": "cd530147", "type": "trainStation", "name": "V\u0161etaty", "address": "", "openingHours": [{"from": 0, "to": 4, "hours": "04:40-13:30,14:00-16:30"}, {"from": 5, "to": 5, "hours": "06:50-11:45,12:15-16:30"}, {"from": 6, "to": 6, "hours": "08:35-12:50,13:10-16:45,17:10-18:30"}], "lat": 50.2824249, "lon": 14.5845423, "services": 1253376, "payMethods": 15, "link": "https://www.cd.cz/stanice/5453014"}, {"id": "cd532069", "type": "trainStation", "name": "Zadn\u00ed T\u0159eba\u0148", "address": "", "openingHours": [{"from": 0, "to": 4, "hours": "06:15-14:05"}], "lat": 49.9188042, "lon": 14.20321, "services": 1253376, "payMethods": 15, "link": "https://www.cd.cz/stanice/5453206"}, {"id": "cd731042", "type": "trainStation", "name": "Zdice", "address": "", "openingHours": [{"from": 0, "to": 6, "hours": "05:55-11:15,12:15-17:45"}], "lat": 49.9077568, "lon": 13.9795122, "services": 1253376, "payMethods": 15, "link": "https://www.cd.cz/stanice/5473104"}, {"id": "cd561365", "type": "trainStation", "name": "Zru\u010d nad S\u00e1zavou", "address": "", "openingHours": [{"from": 0, "to": 4, "hours": "05:00-09:30,10:00-16:35"}, {"from": 5, "to": 5, "hours": "06:55-11:45,12:15-17:00"}, {"from": 6, "to": 6, "hours": "09:00-11:45,12:15-19:20"}], "lat": 49.7384567, "lon": 15.1039867, "services": 1253376, "payMethods": 15, "link": "https://www.cd.cz/stanice/5456136"}, {"id": "ro1", "type": "informationCenter", "name": "And\u011bl", "address": "Vestibul stanice metra ve sm\u011bru ul. Plze\u0148sk\u00e1 (severn\u00ed vestibul)", "openingHours": [{"from": 0, "to": 6, "hours": "7:00-21:00"}], "lat": 50.0709038, "lon": 14.4039793, "services": 1257842, "payMethods": 15}, {"id": "ro2", "type": "informationCenter", "name": "Hlavn\u00ed n\u00e1dra\u017e\u00ed 1", "address": "Odbavovac\u00ed hala n\u00e1dra\u017e\u00ed u vstupu do metra (severn\u00ed vstup)", "openingHours": [{"from": 0, "to": 4, "hours": "6:00-22:00"}, {"from": 5, "to": 6, "hours": "7:00-21:00"}], "lat": 50.0837, "lon": 14.4344406, "services": 209154, "payMethods": 15}, {"id": "ro3", "type": "informationCenter", "name": "Hlavn\u00ed n\u00e1dra\u017e\u00ed 2", "address": "Odbavovac\u00ed hala n\u00e1dra\u017e\u00ed u vstupu do metra (ji\u017en\u00ed vstup)", "openingHours": [{"from": 0, "to": 4, "hours": "6:00-22:00"}, {"from": 5, "to": 6, "hours": "7:00-21:00"}], "lat": 50.0831146, "lon": 14.4339809, "services": 209154, "payMethods": 15}, {"id": "ro4", "type": "informationCenter", "name": "Hrad\u010dansk\u00e1", "address": "Vestibul stanice metra", "openingHours": [{"from": 0, "to": 4, "hours": "6:00-20:00"}, {"from": 5, "to": 5, "hours": "9:30-17:00"}], "lat": 50.0973549, "lon": 14.4045076, "services": 1257842, "payMethods": 15}, {"id": "ro5", "type": "informationCenter", "name": "Leti\u0161t\u011b V\u00e1clava Havla Praha, Termin\u00e1l 1", "address": "P\u0159\u00edletov\u00e1 hala Termin\u00e1lu 1 na leti\u0161ti V\u00e1clava Havla Praha", "openingHours": [{"from": 0, "to": 6, "hours": "7:00-21:00"}], "lat": 50.10736, "lon": 14.2675133, "services": 209154, "payMethods": 15}, {"id": "ro6", "type": "informationCenter", "name": "Leti\u0161t\u011b V\u00e1clava Havla Praha, Termin\u00e1l 2", "address": "P\u0159\u00edletov\u00e1 hala Termin\u00e1lu 2 na leti\u0161ti V\u00e1clava Havla Praha", "openingHours": [{"from": 0, "to": 6, "hours": "7:00-21:00"}], "lat": 50.1057129, "lon": 14.2663736, "services": 209154, "payMethods": 15}, {"id": "ro7", "type": "informationCenter", "name": "Magistr\u00e1t hl. m. Prahy (DPP)", "address": "Jungmannova 29, Praha 1, p\u0159\u00edzem\u00ed budovy Magistr\u00e1tu (\u0160kod\u016fv pal\u00e1c)", "openingHours": [{"from": 0, "to": 3, "hours": "8:00-18:00"}, {"from": 4, "to": 4, "hours": "8:00-16:00"}], "lat": 50.08213, "lon": 14.421916, "services": 1257730, "payMethods": 15, "remarks": "Infocentrum je um\u00edst\u011bno v pas\u00e1\u017ei \u0160kodova pal\u00e1ce."}, {"id": "ro8", "type": "informationCenter", "name": "M\u016fstek", "address": "vestibul stanice M\u016fstek (metro linka A, pop\u0159. B), u vstupu do p\u0159epravn\u00edho prostoru", "openingHours": [{"from": 0, "to": 6, "hours": "7:00-21:00"}], "lat": 50.08395, "lon": 14.4230356, "services": 1257842, "payMethods": 15}, {"id": "ro9", "type": "informationCenter", "name": "N\u00e1dra\u017e\u00ed Veleslav\u00edn", "address": "Vestibul stanice metra", "openingHours": [{"from": 0, "to": 4, "hours": "6:00-20:00"}, {"from": 5, "to": 5, "hours": "9:30-17:00"}], "lat": 50.09544, "lon": 14.347, "services": 1257842, "payMethods": 15}, {"id": "ro51", "type": "informationCenter", "name": "\u010cern\u00fd Most (PID)", "address": "V \u00farovni v\u00fdstupn\u00edch kolej\u00ed metra (ji\u017en\u00ed n\u00e1stupi\u0161t\u011b), ve v\u00fdchodn\u00ed \u010d\u00e1sti stanice", "openingHours": [{"from": 0, "to": 5, "hours": "8:00-12:30,13:00-17:00"}], "lat": 50.109, "lon": 14.5779, "services": 196864, "payMethods": 15, "remarks": "T\u00e9\u017e prodej j\u00edzdenek AMS (d\u00e1lkov\u00e1 doprava)"}, {"id": "ro52", "type": "informationCenter", "name": "Zli\u010d\u00edn (PID)", "address": "Uli\u010dn\u00ed \u00farove\u0148 u autobusov\u00e9ho n\u00e1dra\u017e\u00ed v obchodn\u00ed vybavenosti", "openingHours": [{"from": 0, "to": 4, "hours": "8:00-12:00,12:30-17:00"}], "lat": 50.05403, "lon": 14.29123, "services": 196864, "payMethods": 15, "remarks": "T\u00e9\u017e prodej j\u00edzdenek AMS (d\u00e1lkov\u00e1 doprava)"}, {"id": "ro53", "type": "informationCenter", "name": "Hlavn\u00ed n\u00e1dra\u017e\u00ed (PID)", "address": "sou\u010d\u00e1st z\u00e1kaznick\u00e9ho \u010cD centra v hlavn\u00ed odbavovac\u00ed hale", "openingHours": [{"from": 0, "to": 6, "hours": "8:00-12:00,12:30-18:30"}], "lat": 50.08351, "lon": 14.43495, "services": 196608, "payMethods": 3}, {"id": "ro61", "type": "informationCenter", "name": "Mlad\u00e1 Boleslav (PID)", "address": "v \u010dek\u00e1rn\u011b termin\u00e1lu Autobusov\u00e9ho stanovi\u0161t\u011b (spolu s DP Mlad\u00e1 Boleslav)", "openingHours": [{"from": 0, "to": 0, "hours": "8:00-12:00,13:00-17:30"}, {"from": 1, "to": 1, "hours": "8:00-12:00,13:00-16:30"}, {"from": 2, "to": 2, "hours": "8:00-12:00,13:00-17:30"}, {"from": 3, "to": 3, "hours": "8:00-12:00,13:00-16:30"}, {"from": 4, "to": 4, "hours": "8:00-13:00"}], "lat": 50.41977, "lon": 14.91624, "services": 320, "payMethods": 15, "remarks": "\u00fahrada p\u0159ir\u00e1\u017eky (pokuty) ud\u011blen\u00e9 revizory IDSK (pouze hotov\u011b)", "link": "https://www.idsk.cz/infocentra"}, {"id": "ro62", "type": "informationCenter", "name": "Kutn\u00e1 Hora (PID)", "address": "v \u010dek\u00e1rn\u011b termin\u00e1lu Autobusov\u00e9ho stanovi\u0161t\u011b", "openingHours": [{"from": 0, "to": 0, "hours": "7:00-11:30,12:30-17:00"}, {"from": 1, "to": 1, "hours": "7:00-11:30,12:30-15:00"}, {"from": 2, "to": 2, "hours": "7:00-11:30,12:30-17:00"}, {"from": 3, "to": 3, "hours": "7:00-11:30,12:30-15:00"}, {"from": 4, "to": 4, "hours": "7:00-12:00"}], "lat": 49.95421, "lon": 15.2715, "services": 320, "payMethods": 15, "remarks": "\u00fahrada p\u0159ir\u00e1\u017eky (pokuty) ud\u011blen\u00e9 revizory IDSK (pouze hotov\u011b)", "link": "https://www.idsk.cz/infocentra"}, {"id": "ro63", "type": "informationCenter", "name": "Rakovn\u00edk (PID)", "address": "v termin\u00e1lu Autobusov\u00e9ho stanovi\u0161t\u011b u sloupku \u010d. 18", "openingHours": [{"from": 0, "to": 0, "hours": "6:00-12:00,12:30-17:00"}, {"from": 1, "to": 1, "hours": "6:00-12:00,12:30-15:00"}, {"from": 2, "to": 2, "hours": "6:00-12:00,12:30-17:00"}, {"from": 3, "to": 3, "hours": "6:00-12:00,12:30-15:00"}, {"from": 4, "to": 4, "hours": "6:00-13:00,"}], "lat": 50.10091, "lon": 13.73365, "services": 320, "payMethods": 15, "remarks": "\u00fahrada p\u0159ir\u00e1\u017eky (pokuty) ud\u011blen\u00e9 revizory IDSK (pouze hotov\u011b)", "link": "https://www.idsk.cz/infocentra"}, {"id": "ro64", "type": "informationCenter", "name": "Bene\u0161ov (PID)", "address": "v termin\u00e1lu autobusov\u00e9ho n\u00e1dra\u017e\u00ed v ulici N\u00e1dra\u017en\u00ed \u010d. 2426", "openingHours": [{"from": 0, "to": 0, "hours": "7:00-11:30,12:30-17:00"}, {"from": 1, "to": 1, "hours": "7:00-11:30,12:30-15:00"}, {"from": 2, "to": 2, "hours": "7:00-11:30,12:30-17:00"}, {"from": 3, "to": 3, "hours": "7:00-11:30,12:30-15:00"}, {"from": 4, "to": 4, "hours": "7:00-12:00"}], "lat": 49.77956, "lon": 14.68377, "services": 320, "payMethods": 15, "remarks": "\u00fahrada p\u0159ir\u00e1\u017eky (pokuty) ud\u011blen\u00e9 revizory IDSK (pouze hotov\u011b)", "link": "https://www.idsk.cz/infocentra"}, {"id": "ro65", "type": "informationCenter", "name": "P\u0159\u00edbram (PID)", "address": "v termin\u00e1lu autobusov\u00e9ho n\u00e1dra\u017e\u00ed v ulici \u010cs. arm\u00e1dy 7", "openingHours": [{"from": 0, "to": 0, "hours": "8:00-12:00,13:00-17:30"}, {"from": 1, "to": 1, "hours": "8:00-12:00,13:00-16:30"}, {"from": 2, "to": 2, "hours": "8:00-12:00,13:00-17:30"}, {"from": 3, "to": 3, "hours": "8:00-12:00,13:00-16:30"}, {"from": 4, "to": 4, "hours": "8:00-13:00"}], "lat": 49.6905, "lon": 14.00309, "services": 320, "payMethods": 15, "remarks": "\u00fahrada p\u0159ir\u00e1\u017eky (pokuty) ud\u011blen\u00e9 revizory IDSK (pouze hotov\u011b)", "link": "https://www.idsk.cz/infocentra"}, {"id": "ro99", "type": "informationCenter", "name": "Magistr\u00e1t hl. m. Prahy (OICT)", "address": "Jungmannova 35/29, Praha 1, p\u0159\u00edzem\u00ed budovy Magistr\u00e1tu (\u0160kod\u016fv pal\u00e1c)", "openingHours": [{"from": 0, "to": 0, "hours": "10:00-18:00"}, {"from": 1, "to": 1, "hours": "8:00-16:00"}, {"from": 2, "to": 2, "hours": "10:00-18:00"}, {"from": 3, "to": 4, "hours": "8:00-16:00"}], "lat": 50.08177, "lon": 14.42226, "services": 368, "payMethods": 15, "remarks": "P\u0159ep\u00e1\u017eky jsou um\u00edst\u011bny na rohu Charv\u00e1tovy a Jungmannovy ulice."}, {"id": "ro101", "type": "ticketOfficeMetro", "name": "Nemocnice Motol", "address": "Vestibul stanice metra", "openingHours": [{"from": 0, "to": 4, "hours": "6:00-12:45,13:15-20:00"}], "lat": 50.07472, "lon": 14.34068, "services": 209154, "payMethods": 15}, {"id": "ro102", "type": "ticketOfficeMetro", "name": "Bo\u0159islavka", "address": "Vestibul stanice metra", "openingHours": [{"from": 0, "to": 4, "hours": "6:00-12:45,13:15-20:00"}], "lat": 50.09859, "lon": 14.36476, "services": 209154, "payMethods": 15}, {"id": "ro103", "type": "ticketOfficeMetro", "name": "Dejvick\u00e1", "address": "Vestibul stanice metra (spojovac\u00ed chodba nad n\u00e1stupi\u0161t\u011bm)", "openingHours": [{"from": 0, "to": 4, "hours": "6:00-12:45,13:15-20:00"}], "lat": 50.1004829, "lon": 14.3926392, "services": 1257730, "payMethods": 15}, {"id": "ro105", "type": "ticketOfficeMetro", "name": "N\u00e1m\u011bst\u00ed M\u00edru", "address": "Vestibul stanice metra", "openingHours": [{"from": 0, "to": 4, "hours": "6:00-12:45,13:15-20:00"}], "lat": 50.07517, "lon": 14.4377432, "services": 209154, "payMethods": 15}, {"id": "ro106", "type": "ticketOfficeMetro", "name": "\u017delivsk\u00e9ho", "address": "Vestibul stanice metra", "openingHours": [{"from": 0, "to": 4, "hours": "6:00-12:45,13:15-20:00"}], "lat": 50.07859, "lon": 14.474, "services": 209154, "payMethods": 15}, {"id": "ro108", "type": "ticketOfficeMetro", "name": "Skalka", "address": "Uli\u010dn\u00ed \u00farove\u0148 u bus zast\u00e1vek sm\u011br Zahradn\u00ed m\u011bsto (z\u00e1padn\u00ed strana ulice Na Pades\u00e1t\u00e9m)", "openingHours": [{"from": 0, "to": 4, "hours": "6:00-12:45,13:15-20:00"}], "lat": 50.06804, "lon": 14.5073948, "services": 1257730, "payMethods": 15}, {"id": "ro110", "type": "ticketOfficeMetro", "name": "Zli\u010d\u00edn", "address": "Uli\u010dn\u00ed \u00farove\u0148 u autobusov\u00e9ho n\u00e1dra\u017e\u00ed (severn\u00ed strana)", "openingHours": [{"from": 0, "to": 4, "hours": "6:00-12:45,13:15-20:00"}], "lat": 50.0538177, "lon": 14.2909422, "services": 1257730, "payMethods": 15}, {"id": "ro111", "type": "ticketOfficeMetro", "name": "Luka", "address": "Vestibul stanice metra", "openingHours": [{"from": 0, "to": 4, "hours": "6:00-12:45,13:15-20:00"}], "lat": 50.0453224, "lon": 14.32218, "services": 209154, "payMethods": 15}, {"id": "ro113", "type": "ticketOfficeMetro", "name": "Sm\u00edchovsk\u00e9 n\u00e1dra\u017e\u00ed", "address": "Vestibul stanice metra ve sm\u011bru autobusov\u00e9 n\u00e1dra\u017e\u00ed (ji\u017en\u00ed vestibul)", "openingHours": [{"from": 0, "to": 4, "hours": "6:00-12:45,13:15-20:00"}, {"from": 5, "to": 5, "hours": "9:00-16:00"}], "lat": 50.0604, "lon": 14.4093361, "services": 1257730, "payMethods": 15}, {"id": "ro115", "type": "ticketOfficeMetro", "name": "Karlovo n\u00e1m\u011bst\u00ed", "address": "Vestibul stanice metra ve sm\u011bru Karlovo n\u00e1m\u011bst\u00ed", "openingHours": [{"from": 0, "to": 4, "hours": "6:00-12:45,13:15-20:00"}], "lat": 50.07566, "lon": 14.4187813, "services": 209154, "payMethods": 15}, {"id": "ro116", "type": "ticketOfficeMetro", "name": "M\u016fstek - B", "address": "Vestibul stanice metra linky B", "openingHours": [{"from": 0, "to": 4, "hours": "6:00-12:45,13:15-20:00"}], "lat": 50.083046, "lon": 14.4217329, "services": 209202, "payMethods": 15}, {"id": "ro118", "type": "ticketOfficeMetro", "name": "Palmovka", "address": "Vestibul stanice m\u011btra ve sm\u011bru autobusov\u00e9 n\u00e1dra\u017e\u00ed (v\u00fdchodn\u00ed vestibul)", "openingHours": [{"from": 0, "to": 4, "hours": "6:00-12:45,13:15-20:00"}], "lat": 50.10497, "lon": 14.4757395, "services": 209154, "payMethods": 15}, {"id": "ro119", "type": "ticketOfficeMetro", "name": "Vyso\u010dansk\u00e1", "address": "Vestibul stanice metra ve sm\u011bru ul. Freyova (v\u00fdchodn\u00ed vestibul)", "openingHours": [{"from": 0, "to": 4, "hours": "6:00-12:45,13:15-20:00"}], "lat": 50.11055, "lon": 14.5021973, "services": 1257730, "payMethods": 15}, {"id": "ro121", "type": "ticketOfficeMetro", "name": "\u010cern\u00fd Most", "address": "Uli\u010dn\u00ed \u00farove\u0148 u n\u00e1stupi\u0161t\u011b metra sm\u011br centrum (severn\u00ed n\u00e1stupi\u0161t\u011b)", "openingHours": [{"from": 0, "to": 4, "hours": "6:00-12:45,13:15-20:00"}, {"from": 5, "to": 5, "hours": "9:00-16:00"}], "lat": 50.1091042, "lon": 14.5774021, "services": 1257730, "payMethods": 15}, {"id": "ro122", "type": "ticketOfficeMetro", "name": "H\u00e1je", "address": "Vestibul stanice m\u011btra ve sm\u011bru ul. Opatovsk\u00e1 (v\u00fdchodn\u00ed vestibul)", "openingHours": [{"from": 0, "to": 4, "hours": "6:00-12:45,13:15-20:00"}], "lat": 50.0310555, "lon": 14.5286093, "services": 209154, "payMethods": 15}, {"id": "ro128", "type": "ticketOfficeMetro", "name": "N\u00e1dra\u017e\u00ed Hole\u0161ovice", "address": "Vestibul stanice metra ve sm\u011bru ul. Plyn\u00e1rn\u00ed (ji\u017en\u00ed vestibul)", "openingHours": [{"from": 0, "to": 4, "hours": "6:00-12:45,13:15-20:00"}], "lat": 50.1084175, "lon": 14.440424, "services": 209154, "payMethods": 15}, {"id": "ro130", "type": "ticketOfficeMetro", "name": "L\u00e1dv\u00ed", "address": "Vestibul stanice m\u011btra ve sm\u011bru ul. Op\u00e1lkova (z\u00e1padn\u00ed v\u00fdstup)", "openingHours": [{"from": 0, "to": 4, "hours": "6:00-12:45,13:15-20:00"}], "lat": 50.1265755, "lon": 14.4690342, "services": 1257730, "payMethods": 15}, {"id": "ro140", "type": "ticketOfficeMetro", "name": "Centr\u00e1ln\u00ed dispe\u010dink DPP", "address": "Na Boji\u0161ti 5, Praha 2", "openingHours": [{"from": 0, "to": 4, "hours": "6:00-12:45,13:15-20:00"}], "lat": 50.0742264, "lon": 14.4283772, "services": 1257842, "payMethods": 15}, {"id": "ro151", "type": "ticketOfficeMetro", "name": "Kobylisy", "address": "Vestibul stanice metra ve sm\u011bru Kobylisk\u00e9 n\u00e1m\u011bst\u00ed (z\u00e1padn\u00ed vestibul)", "openingHours": [{"from": 0, "to": 4, "hours": "6:00-12:45,13:15-20:00"}], "lat": 50.1234932, "lon": 14.4522943, "services": 1257778, "payMethods": 15}, {"id": "ro152", "type": "ticketOfficeMetro", "name": "Ka\u010derov", "address": "Vestibul stanice metra", "openingHours": [{"from": 0, "to": 4, "hours": "6:00-12:45,13:15-20:00"}, {"from": 5, "to": 5, "hours": "9:00-16:00"}], "lat": 50.0418625, "lon": 14.4602909, "services": 209154, "payMethods": 15}, {"id": "ro153", "type": "ticketOfficeMetro", "name": "And\u011bl (Na Kn\u00ed\u017eec\u00ed)", "address": "Vestibul stanice metra", "openingHours": [{"from": 0, "to": 4, "hours": "6:00-12:45,13:15-20:00"}], "lat": 50.0684929, "lon": 14.4039536, "services": 209202, "payMethods": 15}, {"id": "ro154", "type": "ticketOfficeMetro", "name": "Florenc", "address": "Uli\u010dn\u00ed \u00farove\u0148 u vchodu do stanice metro linky B (z\u00e1padn\u00ed strana)", "openingHours": [{"from": 0, "to": 4, "hours": "6:00-12:45,13:15-20:00"}, {"from": 5, "to": 5, "hours": "9:00-16:00"}], "lat": 50.09084, "lon": 14.43915, "services": 209154, "payMethods": 15}, {"id": "ro155", "type": "ticketOfficeMetro", "name": "I. P. Pavlova", "address": "Vestibul stanice metra", "openingHours": [{"from": 0, "to": 4, "hours": "6:00-12:45,13:15-20:00"}, {"from": 5, "to": 5, "hours": "9:00-16:00"}], "lat": 50.07519, "lon": 14.4301233, "services": 209154, "payMethods": 15}, {"id": "ro156", "type": "ticketOfficeMetro", "name": "Let\u0148any", "address": "Vestibul stanice metra ve sm\u011bru autobusov\u00e9 n\u00e1dra\u017e\u00ed (v\u00fdchodn\u00ed vestibul)", "openingHours": [{"from": 0, "to": 4, "hours": "6:00-12:45,13:15-20:00"}, {"from": 5, "to": 5, "hours": "9:00-16:00"}], "lat": 50.12511, "lon": 14.5165262, "services": 1257842, "payMethods": 15}, {"id": "ro157", "type": "ticketOfficeMetro", "name": "Roztyly", "address": "Uli\u010dn\u00ed \u00farove\u0148 u autobusov\u00e9ho n\u00e1dra\u017e\u00ed (severn\u00ed strana)", "openingHours": [{"from": 0, "to": 4, "hours": "6:00-12:45,13:15-20:00"}, {"from": 5, "to": 5, "hours": "9:00-16:00"}], "lat": 50.03751, "lon": 14.4776363, "services": 1257842, "payMethods": 15}, {"id": "ro200", "type": "carrierOffice", "name": "Brand\u00fds nad Labem-Star\u00e1 Boleslav", "address": "Informa\u010dn\u00ed kancel\u00e1\u0159 dopravce \u010cSAD St\u0159edn\u00ed \u010cechy", "openingHours": [{"from": 0, "to": 4, "hours": "6:00-11:30,12:00-18:00"}], "lat": 50.1978149, "lon": 14.6786165, "services": 1257474, "payMethods": 3}, {"id": "ro203", "type": "carrierOffice", "name": "M\u011bln\u00edk", "address": "Informa\u010dn\u00ed kancel\u00e1\u0159 dopravce \u010cSAD St\u0159edn\u00ed \u010cechy", "openingHours": [{"from": 0, "to": 4, "hours": "5:00-12:00,12:30-19:00"}, {"from": 5, "to": 5, "hours": "8:00-12:00"}], "lat": 50.35018, "lon": 14.4880257, "services": 1060866, "payMethods": 15}, {"id": "ro204", "type": "carrierOffice", "name": "Kladno - autobusov\u00e9 n\u00e1dra\u017e\u00ed", "address": "Informa\u010dn\u00ed kancel\u00e1\u0159 \u010cSAD Kladno na autobusov\u00e9m n\u00e1dra\u017e\u00ed", "openingHours": [{"from": 0, "to": 4, "hours": "6:00-18:00"}, {"from": 5, "to": 5, "hours": "7:00-12:00"}], "lat": 50.1464157, "lon": 14.1056156, "services": 1060866, "payMethods": 3}, {"id": "ro205", "type": "carrierOffice", "name": "Kladno - n\u00e1m\u011bst\u00ed Svobody", "address": "Informa\u010dn\u00ed kancel\u00e1\u0159 \u010cSAD Kladno na n\u00e1m\u011bst\u00ed Svobody", "openingHours": [{"from": 0, "to": 4, "hours": "6:00-18:00"}, {"from": 5, "to": 5, "hours": "7:00-12:00"}], "lat": 50.1448021, "lon": 14.0938206, "services": 1060866, "payMethods": 3}, {"id": "ro207", "type": "carrierOffice", "name": "Kol\u00edn", "address": "Informa\u010dn\u00ed kancel\u00e1\u0159 OAD Kol\u00edn", "openingHours": [{"from": 0, "to": 0, "hours": "13:00-18:00"}, {"from": 1, "to": 1, "hours": "10:00-14:00"}, {"from": 2, "to": 2, "hours": "13:00-18:00"}, {"from": 3, "to": 4, "hours": "10:00-14:00"}], "lat": 50.02415, "lon": 15.2139, "services": 1060866, "payMethods": 15}, {"id": "ro213", "type": "carrierOffice", "name": "Ho\u0159ovice", "address": "P\u0159edprodejn\u00ed kancel\u00e1\u0159 m\u011bsta Ho\u0159ovice na Palack\u00e9ho n\u00e1m. 253/4", "openingHours": [{"from": 0, "to": 0, "hours": "8:00-12:00,12:30-16:00"}, {"from": 1, "to": 1, "hours": "8:00-12:00,12:30-15:30"}, {"from": 2, "to": 2, "hours": "8:00-12:00,12:30-17:00"}, {"from": 3, "to": 3, "hours": "8:00-12:00,12:30-15:30"}, {"from": 4, "to": 4, "hours": "8:00-13:00"}], "lat": 49.8367767, "lon": 13.9035311, "services": 256, "payMethods": 15}]